geo_id,geoname_id,name,latitude,longitude,continent,status
1,2508309,'Ain Abid,36.23194,6.94333,Africa/Algiers,0
2,2508275,'Ain Benian,36.80277,2.92185,Africa/Algiers,0
3,2508225,'Ain Deheb,34.84218,1.54697,Africa/Algiers,0
4,2508184,'Ain el Bell,34.34381,3.22475,Africa/Algiers,0
5,2508180,'Ain el Berd,35.36395,-0.51279,Africa/Algiers,0
6,2508152,'Ain el Hammam,36.56471,4.30619,Africa/Algiers,0
7,2508130,'Ain el Melh,34.84146,4.16383,Africa/Algiers,0
8,2508119,'Ain el Turk,35.74381,-0.7693,Africa/Algiers,0
9,2508010,'Ain Merane,36.16277,0.97037,Africa/Algiers,0
10,250799,'Ajlun,32.33326,35.75279,Asia/Amman,0
11,225284,'Ali Sabieh,11.15583,42.7125,Africa/Djibouti,0
12,78428,'Amran,15.6594,43.94385,Asia/Aden,0
13,98822,'Aqrah,36.73322,43.87964,Asia/Baghdad,0
14,108512,'Ar'ar,30.97531,41.03808,Asia/Riyadh,0
15,295657,'Arad,31.25882,35.21282,Asia/Jerusalem,0
16,172256,'Ayn al 'Arab,36.89095,38.35347,Asia/Damascus,0
17,5855070,'Ewa Gentry,21.33999,-158.03039,Pacific/Honolulu,0
18,2747364,'s-Gravenzande,52.00167,4.16528,Europe/Amsterdam,0
19,2747351,'s-Hertogenbosch,51.69917,5.30417,Europe/Amsterdam,0
20,281165,`Abasan al Kabirah,31.31913,34.34005,Asia/Gaza,0
21,99738,`Afak,32.0643,45.24743,Asia/Baghdad,0
22,110250,`Afif,23.9065,42.91724,Asia/Riyadh,0
23,174186,`Afrin,36.51194,36.86954,Asia/Damascus,0
24,295739,`Afula `Illit,32.63221,35.32533,Asia/Jerusalem,0
25,2508157,`Ain el Hadjel,35.67003,3.88153,Africa/Algiers,0
26,144443,`Ajab Shir,37.4776,45.8943,Asia/Tehran,0
27,295721,`Akko,32.92814,35.07647,Asia/Jerusalem,0
28,99306,`Ali al Gharbi,32.46186,46.68794,Asia/Baghdad,0
29,98885,`Anat al Qadimah,34.46934,41.94223,Asia/Baghdad,0
30,250420,`Anjarah,32.3063,35.75653,Asia/Amman,0
31,287830,`Ibri,23.22573,56.51572,Asia/Muscat,0
32,169372,`Irbin,33.53719,36.36635,Asia/Damascus,0
33,355392,`Izbat al Burj,31.5084,31.84106,Africa/Cairo,0
34,248923,`Izra,31.15889,35.69278,Asia/Amman,0
35,3119841,A Coruna,43.37135,-8.396,Europe/Madrid,0
36,3119746,A Estrada,42.68911,-8.48842,Europe/Madrid,0
37,2625070,Aabenraa,55.04434,9.41741,Europe/Copenhagen,0
38,3247449,Aachen,50.77664,6.08342,Europe/Berlin,0
39,2624886,Aalborg,57.048,9.9187,Europe/Copenhagen,0
40,2959927,Aalen,48.83777,10.0933,Europe/Berlin,0
41,2760134,Aalsmeer,52.25917,4.75972,Europe/Amsterdam,0
42,2803448,Aalst,50.93604,4.0355,Europe/Brussels,0
43,2760123,Aalten,51.925,6.58056,Europe/Amsterdam,0
44,2803443,Aalter,51.09017,3.44693,Europe/Brussels,0
45,2661881,Aarau,47.39254,8.04422,Europe/Zurich,0
46,2803429,Aarschot,50.98715,4.83695,Europe/Brussels,0
47,2353151,Aba,5.10658,7.36667,Africa/Lagos,0
48,145459,Abadan,30.3392,48.3043,Asia/Tehran,0
49,162099,Abadan,38.05415,58.19721,Asia/Ashgabat,0
50,145449,Abadeh,31.1608,52.6506,Asia/Tehran,0
51,3473267,Abaete,-19.16,-45.44583,America/Sao_Paulo,0
52,3408424,Abaetetuba,-1.71806,-48.8825,America/Belem,0
53,2353099,Abakaliki,6.32485,8.11368,Africa/Lagos,0
54,1512236,Abakan,53.71556,91.42917,Asia/Krasnoyarsk,0
55,3948642,Abancay,-13.63389,-72.88139,America/Lima,0
56,3183587,Abano Terme,45.35753,11.78725,Europe/Rome,0
57,2130741,Abashiri,44.02127,144.26971,Asia/Tokyo,0
58,4019869,Abasolo,20.44997,-101.53073,America/Mexico_City,0
59,1526970,Abay,49.63575,72.86164,Asia/Almaty,0
60,1512205,Abaza,52.655,90.09278,Asia/Krasnoyarsk,0
61,3038789,Abbeville,50.1,1.83333,Europe/Paris,0
62,3183573,Abbiategrasso,45.39821,8.91678,Europe/Rome,0
63,5881791,Abbotsford,49.05798,-122.25257,America/Vancouver,0
64,1185056,Abbottabad,34.14685,73.21449,Asia/Karachi,0
65,145233,Abdanan,32.9926,47.4198,Asia/Tehran,0
66,584471,Abdulino,53.7,53.66667,Asia/Yekaterinburg,0
67,245785,Abeche,13.82916,20.8324,Africa/Ndjamena,0
68,2293549,Abengourou,6.72972,-3.49639,Africa/Abidjan,0
69,2352947,Abeokuta,7.15571,3.34509,Africa/Lagos,0
70,2082727,Abepura,-2.5964,140.6324,Asia/Jayapura,0
71,2657835,Aberdare,51.71438,-3.44918,Europe/London,0
72,2657832,Aberdeen,57.14369,-2.09814,Europe/London,0
73,5225857,Aberdeen,45.4647,-98.48648,America/Chicago,0
74,5785243,Aberdeen,46.97537,-123.81572,America/Los_Angeles,0
75,2657812,Abergele,53.28436,-3.5822,Europe/London,0
76,2657782,Aberystwyth,52.41548,-4.08292,Europe/London,0
77,110690,Abha,18.21639,42.50528,Asia/Riyadh,0
78,145034,Abhar,36.1468,49.218,Asia/Tehran,0
79,1279407,Abhayapuri,26.32255,90.68526,Asia/Kolkata,0
80,2293538,Abidjan,5.30966,-4.01266,Africa/Abidjan,0
81,3393768,Abidos,-1.9175,-55.51806,America/Santarem,0
82,2113164,Abiko,35.86667,140.01667,Asia/Tokyo,0
83,4669635,Abilene,32.44874,-99.73314,America/Chicago,0
84,2657780,Abingdon,51.67109,-1.28278,Europe/London,0
85,4928662,Abington,42.10482,-70.94532,America/New_York,0
86,584441,Abinsk,44.86803,38.15728,Europe/Moscow,0
87,362973,Abnub,27.2696,31.15105,Africa/Cairo,0
88,2293521,Abobo,5.41613,-4.0159,Africa/Abidjan,0
89,1279403,Abohar,30.14453,74.19552,Asia/Kolkata,0
90,2293507,Aboisso,5.46779,-3.20711,Africa/Abidjan,0
91,2395915,Abomey,7.18286,1.99119,Africa/Porto-Novo,0
92,2395914,Abomey-Calavi,6.44852,2.35566,Africa/Porto-Novo,0
93,345704,Abomsa,9.98333,39.98333,Africa/Addis_Ababa,0
94,723030,Abony,47.1899,20.00476,Europe/Budapest,0
95,2509031,Abou el Hassan,36.41657,1.19616,Africa/Algiers,0
96,617026,Abovyan,40.26741,44.62656,Asia/Yerevan,0
97,107312,Abqaiq,25.9371,49.67761,Asia/Riyadh,0
98,3408404,Abreu e Lima,-7.91167,-34.90278,America/Recife,0
99,3569741,Abreus,22.2775,-80.5675,America/Havana,0
100,1279396,Abu,24.59365,72.71756,Asia/Kolkata,0
101,110619,Abu `Arish,16.96887,42.83251,Asia/Riyadh,0
102,362882,Abu al Matamir,30.91018,30.17438,Africa/Cairo,0
103,292968,Abu Dhabi,24.46667,54.36667,Asia/Dubai,0
104,100077,Abu Ghurayb,33.30563,44.18477,Asia/Baghdad,0
105,380757,Abu Jibeha,11.4562,31.2285,Africa/Khartoum,0
106,362485,Abu Kabir,30.72508,31.67148,Africa/Cairo,0
107,362277,Abu Qurqas,27.9312,30.83841,Africa/Cairo,0
108,1279394,Abu Road,24.48012,72.78186,Asia/Kolkata,0
109,362004,Abu Tij,27.04411,31.31897,Africa/Cairo,0
110,380348,Abu Zabad,12.35,29.25,Africa/Khartoum,0
111,1732354,Abucay,14.73347,120.53358,Asia/Manila,0
112,2352778,Abuja,9.05785,7.49508,Africa/Lagos,0
113,2306119,Aburi,5.84802,-0.17449,Africa/Accra,0
114,1732312,Abuyog,10.747,125.0107,Asia/Manila,0
115,144794,Abyek,36.06667,50.55,Asia/Tehran,0
116,3690577,Acacias,3.98695,-73.75797,America/Bogota,0
117,3533486,Acajete,19.10412,-97.95104,America/Mexico_City,0
118,3587498,Acajutla,13.59278,-89.8275,America/El_Salvador,0
119,4019827,Acambaro,20.03024,-100.72249,America/Mexico_City,0
120,4019819,Acaponeta,22.49396,-105.36369,America/Mazatlan,0
121,3533462,Acapulco de Juarez,16.86336,-99.8901,America/Mexico_City,0
122,3408368,Acarau,-2.88556,-40.12,America/Fortaleza,0
123,3649833,Acarigua,9.55451,-69.19564,America/Caracas,0
124,3533440,Acatlan de Osorio,18.2025,-98.04864,America/Mexico_City,0
125,3533433,Acatzingo de Hidalgo,18.98036,-97.78473,America/Mexico_City,0
126,3533426,Acayucan,17.94885,-94.91399,America/Mexico_City,0
127,2306104,Accra,5.55602,-0.1969,Africa/Accra,0
128,2657770,Accrington,53.75379,-2.35863,Europe/London,0
129,3183541,Acerra,40.94477,14.3714,Europe/Rome,0
130,1279390,Achalpur,21.25665,77.51006,Asia/Kolkata,0
131,265488,Acharnes,38.08333,23.73333,Europe/Athens,0
132,2038679,Acheng,45.54545,126.97703,Asia/Shanghai,0
133,3038712,Acheres,48.96115,2.06882,Europe/Paris,0
134,2959686,Achern,48.63115,8.07607,Europe/Berlin,0
135,1279382,Achhnera,27.17826,77.75674,Asia/Kolkata,0
136,2306079,Achiaman,5.7,-0.33333,Africa/Accra,0
137,2959681,Achim,53.01416,9.0263,Europe/Berlin,0
138,1512165,Achinsk,56.2694,90.4993,Asia/Krasnoyarsk,0
139,584298,Achkhoy-Martan,43.18997,45.28373,Europe/Moscow,0
140,2525792,Aci Castello,37.55564,15.14535,Europe/Rome,0
141,2525791,Aci Catena,37.60614,15.14165,Europe/Rome,0
142,3183539,Acilia-Castel Fusano-Ostia Antica,41.76337,12.33078,Europe/Rome,0
143,2525790,Acireale,37.60886,15.16577,Europe/Rome,0
144,2657703,Acocks Green,52.45,-1.81667,Europe/London,0
145,3408343,Acopiara,-6.09528,-39.4525,America/Fortaleza,0
146,3183494,Acquaviva delle Fonti,40.89704,16.8433,Europe/Rome,0
147,3183490,Acqui Terme,44.67552,8.46934,Europe/Rome,0
148,2657697,Acton,51.50901,-0.2762,Europe/London,0
149,4928703,Acton,42.48509,-71.43284,America/New_York,0
150,3533389,Actopan,20.26961,-98.94377,America/Mexico_City,0
151,3408337,Acu,-5.57667,-36.90861,America/Fortaleza,0
152,4179074,Acworth,34.06635,-84.67837,America/New_York,0
153,174259,Ad Dana,36.21252,36.76978,Asia/Damascus,0
154,170887,Ad Darbasiyah,37.07279,40.65199,Asia/Damascus,0
155,285856,Ad Dasmah,29.365,48.00139,Asia/Kuwait,0
156,110325,Ad Dawadimi,24.50772,44.39237,Asia/Riyadh,0
157,110314,Ad Dilam,23.99104,47.16181,Asia/Riyadh,0
158,361827,Ad Dilinjat,30.82791,30.53633,Africa/Cairo,0
159,380151,Ad Dindar,13.2,34.16667,Africa/Khartoum,0
160,99762,Ad Diwaniyah,31.99289,44.92552,Asia/Baghdad,1
161,380129,Ad Douiem,14.0012,32.3116,Africa/Khartoum,0
162,99759,Ad Dujayl,33.84667,44.23444,Asia/Baghdad,0
163,380174,Ad-Damazin,11.7891,34.3592,Africa/Khartoum,0
164,4529096,Ada,34.77453,-96.67834,America/Chicago,0
165,289433,Adam,22.3756,57.52334,Asia/Muscat,0
166,3473157,Adamantina,-21.68528,-51.0725,America/Sao_Paulo,0
167,1462733,Adampur,31.43224,75.71484,Asia/Kolkata,0
168,4030723,Adamstown,-25.06597,-130.10147,Pacific/Pitcairn,0
169,325363,Adana,37.00167,35.32889,Europe/Istanbul,0
170,752850,Adapazari,40.78056,30.40333,Europe/Istanbul,0
171,1279356,Addanki,15.80994,79.97311,Asia/Kolkata,0
172,345353,Addiet Canna,11.26667,37.48333,Africa/Addis_Ababa,0
173,344979,Addis Ababa,9.02497,38.74689,Africa/Addis_Ababa,0
174,4882920,Addison,41.9317,-87.98896,America/Chicago,0
175,2522437,Adeje,28.12271,-16.726,Atlantic/Canary,0
176,2078025,Adelaide,-34.92866,138.59863,Australia/Adelaide,0
177,7302628,Adelaide Hills,-34.91119,138.70735,Australia/Adelaide,0
178,5322400,Adelanto,34.58277,-117.40922,America/Los_Angeles,0
179,3183472,Adelfia,41.0033,16.87208,Europe/Rome,0
180,4346991,Adelphi,39.00317,-76.97192,America/New_York,0
181,415189,Aden,12.77944,45.03667,Asia/Aden,0
182,292953,Adh Dhayd,25.28812,55.88157,Asia/Dubai,0
183,2293428,Adiake,5.28634,-3.30403,Africa/Abidjan,0
184,345149,Adigrat,14.277,39.462,Africa/Addis_Ababa,0
185,1279344,Adilabad,19.67203,78.5359,Asia/Kolkata,0
186,325336,Adilcevaz,38.79911,42.73159,Europe/Istanbul,0
187,1278204,Adirampattinam,10.34059,79.37905,Asia/Kolkata,0
188,344923,Adis Zemen,12.11667,37.78333,Africa/Addis_Ababa,0
189,1651887,Adiwerna,-6.9375,109.1325,Asia/Jakarta,0
190,325330,Adiyaman,37.76441,38.27629,Europe/Istanbul,0
191,686669,Adjud,46.1,27.16667,Europe/Bucharest,0
192,235489,Adjumani,3.37786,31.7909,Africa/Kampala,0
193,584243,Adler,43.42896,39.92391,Europe/Moscow,0
194,2959441,Adlershof,52.43548,13.54825,Europe/Berlin,0
195,2661861,Adliswil,47.30997,8.52462,Europe/Zurich,0
196,8504953,Admiralteisky,59.90839,30.28484,Europe/Moscow,0
197,2352356,Ado Odo,6.6,2.93333,Africa/Lagos,0
198,2352379,Ado-Ekiti,7.62329,5.22087,Africa/Lagos,0
199,1279335,Adoni,15.62509,77.27536,Asia/Kolkata,0
200,2522430,Adra,36.74961,-3.02055,Europe/Madrid,0
201,1279334,Adra,23.49668,86.68363,Asia/Kolkata,0
202,2525769,Adrano,37.66358,14.83283,Europe/Rome,0
203,2508813,Adrar,27.87429,-0.29388,Africa/Algiers,0
204,4983811,Adrian,41.89755,-84.03717,America/Detroit,0
205,10172104,Adrogue,-34.80041,-58.38384,America/Argentina/Buenos_Aires,0
206,1279323,Adur,9.16667,76.73333,Asia/Kolkata,0
207,2293342,Adzope,6.10694,-3.86194,Africa/Abidjan,0
208,2725901,AEngelholm,56.2428,12.86219,Europe/Stockholm,0
209,2288118,Affery,6.32035,-3.95235,Africa/Abidjan,0
210,4374513,Affton,38.55061,-90.33317,America/Chicago,0
211,65785,Afgooye,2.1381,45.1212,Africa/Mogadishu,0
212,2352250,Afikpo,5.89258,7.93534,Africa/Lagos,0
213,584126,Afipskiy,44.90005,38.84265,Europe/Moscow,0
214,2508737,Aflou,34.11279,2.10228,Africa/Algiers,0
215,3408274,Afogados da Ingazeira,-7.75083,-37.63917,America/Recife,0
216,3183455,Afragola,40.92298,14.30935,Europe/Rome,0
217,325304,Afsin,38.24769,36.91399,Europe/Istanbul,0
218,325303,Afyonkarahisar,38.75667,30.54333,Europe/Istanbul,0
219,1279307,Afzalgarh,29.3937,78.67393,Asia/Kolkata,0
220,1279306,Afzalpur,17.19986,76.36018,Asia/Kolkata,0
221,2448085,Agadez,16.97333,7.99111,Africa/Niamey,0
222,2561668,Agadir,30.42018,-9.59815,Africa/Casablanca,0
223,1279299,Agar,23.71177,76.01571,Asia/Kolkata,0
224,344661,Agaro,7.85,36.65,Africa/Addis_Ababa,0
225,1279290,Agartala,23.83605,91.27939,Asia/Kolkata,0
226,4928788,Agawam,42.06954,-72.61481,America/New_York,0
227,2351979,Agbor,6.25375,6.1942,Africa/Lagos,0
228,2293268,Agboville,5.92801,-4.21319,Africa/Abidjan,0
229,148619,Agdam,39.99096,46.92736,Asia/Baku,0
230,587378,Agdas,40.64699,47.4738,Asia/Baku,0
231,3038638,Agde,43.31083,3.47583,Europe/Paris,0
232,587384,Agdzhabedy,40.05015,47.45937,Asia/Baku,0
233,3038634,Agen,44.2,0.63333,Europe/Paris,0
234,1865714,Ageoshimo,35.97145,139.61382,Asia/Tokyo,0
235,144696,Aghajari,30.7006,49.8315,Asia/Tehran,0
236,587361,Aghsu,40.57028,48.40087,Asia/Baku,0
237,264194,Agia Paraskevi,38.01667,23.83333,Europe/Athens,0
238,264111,Agia Varvara,37.98938,23.66011,Europe/Athens,0
239,484856,Agidel',55.9077,53.9355,Asia/Yekaterinburg,0
240,8358563,Agioi Anargyroi,38.03013,23.72379,Europe/Athens,0
241,263986,Agios Dimitrios,37.93333,23.73333,Europe/Athens,0
242,8478257,Agios Ioannis Rentis,37.96491,23.66511,Europe/Athens,0
243,2293260,Agnibilekrou,7.13113,-3.20415,Africa/Abidjan,0
244,2305537,Agogo,6.80004,-1.08193,Africa/Accra,0
245,1731959,Agoo,16.08333,120.1,Asia/Manila,0
246,5322551,Agoura,34.14306,-118.73787,America/Los_Angeles,0
247,5322553,Agoura Hills,34.13639,-118.77453,America/Los_Angeles,0
248,1279259,Agra,27.18333,78.01667,Asia/Kolkata,0
249,309647,Agri,39.71944,43.05139,Europe/Istanbul,0
250,2525764,Agrigento,37.31065,13.57661,Europe/Rome,0
251,265560,Agrinio,38.62139,21.40778,Europe/Athens,0
252,3183412,Agropoli,40.34923,14.99067,Europe/Rome,0
253,583983,Agryz,56.52034,52.99422,Europe/Moscow,0
254,3533269,Agua Dulce,18.13909,-94.14527,America/Mexico_City,0
255,3408175,Agua Preta,-8.7075,-35.53056,America/Recife,0
256,4019260,Agua Prieta,31.33071,-109.54876,America/Hermosillo,0
257,3690465,Aguachica,8.30844,-73.6166,America/Bogota,0
258,3569546,Aguada de Pasajeros,22.3852,-80.84792,America/Havana,0
259,3690431,Aguadas,5.61161,-75.45624,America/Bogota,0
260,4562506,Aguadilla,18.42745,-67.15407,America/Puerto_Rico,0
261,3715042,Aguadulce,8.24183,-80.54609,America/Panama,0
262,3472969,Aguai,-22.05944,-46.97861,America/Sao_Paulo,0
263,3408166,Aguas Belas,-9.11139,-37.12306,America/Recife,0
264,3472869,Aguas de Lindoia,-22.47639,-46.63278,America/Sao_Paulo,0
265,2743304,Aguas Santas,41.21061,-8.5866,Europe/Lisbon,0
266,3472848,Aguas Vermelhas,-15.74722,-41.46,America/Sao_Paulo,0
267,4019233,Aguascalientes,21.88234,-102.28259,America/Mexico_City,0
268,3690316,Aguazul,5.17282,-72.54706,America/Bogota,0
269,3472825,Agudos,-22.46917,-48.9875,America/Sao_Paulo,0
270,3866496,Aguilares,-27.4338,-65.61427,America/Argentina/Tucuman,0
271,3587428,Aguilares,13.95722,-89.18972,America/El_Salvador,0
272,2522333,Aguilas,37.4063,-1.58289,Europe/Madrid,0
273,2522325,Aguimes,27.90539,-15.44609,Atlantic/Canary,0
274,2351740,Agulu,6.10045,7.061,Africa/Lagos,0
275,3792383,Agustin Codazzi,10.03672,-73.23558,America/Bogota,0
276,144616,Ahar,38.4774,47.0699,Asia/Tehran,0
277,2959279,Ahaus,52.07936,7.01344,Europe/Berlin,0
278,2561124,Ahfir,34.95368,-2.10027,Africa/Casablanca,0
279,325103,Ahlat,38.7489,42.48007,Europe/Istanbul,0
280,2959223,Ahlen,51.76338,7.8887,Europe/Berlin,0
281,147059,Ahmadbayli,39.87867,48.39901,Asia/Baku,0
282,1279228,Ahmadnagar,19.09457,74.73843,Asia/Kolkata,0
283,1279227,Ahmadpur,18.70622,76.93731,Asia/Kolkata,0
284,1184845,Ahmadpur East,29.14309,71.25976,Asia/Karachi,0
285,1356491,Ahmadpur Sial,30.67539,71.74828,Asia/Karachi,0
286,1279233,Ahmedabad,23.02579,72.58727,Asia/Kolkata,0
287,1279219,Ahraura,25.01579,83.03294,Asia/Kolkata,0
288,2959083,Ahrensburg,53.67515,10.22593,Europe/Berlin,0
289,3587426,Ahuachapan,13.92139,-89.845,America/El_Salvador,0
290,144448,Ahvaz,31.31901,48.6842,Asia/Tehran,0
291,1127768,Aibak,36.26468,68.01551,Asia/Kabul,0
292,2958975,Aichach,48.45755,11.13413,Europe/Berlin,0
293,265533,Aigaleo,37.98333,23.68333,Europe/Athens,0
294,265500,Aigio,38.24861,22.08194,Europe/Athens,0
295,4569067,Aiken,33.56042,-81.71955,America/New_York,0
296,1651816,Aileu,-8.72806,125.56639,Asia/Dili,0
297,3472808,Aimores,-19.49583,-41.06389,America/Sao_Paulo,0
298,2508297,Ain Arnat,36.18683,5.31347,Africa/Algiers,0
299,2508287,Ain Beida,35.79639,7.39278,Africa/Algiers,0
300,2508268,Ain Bessem,36.29333,3.67319,Africa/Algiers,0
301,2508228,Ain Defla,36.26405,1.9679,Africa/Algiers,0
302,2508174,Ain el Bya,35.80389,-0.30178,Africa/Algiers,0
303,2508102,Ain Fakroun,35.97108,6.87374,Africa/Algiers,0
304,2508059,Ain Kercha,35.92472,6.69528,Africa/Algiers,0
305,2507972,Ain Oussera,35.45139,2.90583,Africa/Algiers,0
306,2507943,Ain Sefra,32.75,-0.58333,Africa/Algiers,0
307,2507926,Ain Smara,36.2674,6.50135,Africa/Algiers,0
308,7521348,Ain Sukhna,29.60018,32.31671,Africa/Cairo,0
309,2507912,Ain Taya,36.79333,3.28694,Africa/Algiers,0
310,2507901,Ain Temouchent,35.29749,-1.14037,Africa/Algiers,0
311,2507877,Ain Touta,35.37675,5.90001,Africa/Algiers,1
312,1865661,Aioi,34.80361,134.46806,Asia/Tokyo,0
313,5882799,Airdrie,51.30011,-114.03528,America/Edmonton,0
314,2657613,Airdrie,55.86602,-3.98025,Europe/London,0
315,7279599,Airoli,19.15096,72.99625,Asia/Kolkata,0
316,7302860,Aistala,23.18,88.58,Asia/Kolkata,0
317,686590,Aiud,46.31006,23.72128,Europe/Bucharest,0
318,3038354,Aix-en-Provence,43.5283,5.44973,Europe/Paris,0
319,3038350,Aix-les-Bains,45.68338,5.92241,Europe/Paris,0
320,1279186,Aizawl,23.72894,92.71791,Asia/Kolkata,0
321,361702,Aja,30.94162,31.29039,Africa/Cairo,0
322,3038334,Ajaccio,41.92723,8.73462,Europe/Paris,0
323,3533126,Ajalpan,18.37831,-97.25767,America/Mexico_City,0
324,2351470,Ajaokuta,7.56229,6.65497,Africa/Lagos,0
325,5882873,Ajax,43.85012,-79.03288,America/Toronto,0
326,89113,Ajdabiya,30.75545,20.22625,Africa/Tripoli,0
327,3056357,Ajka,47.10196,17.55892,Europe/Budapest,0
328,292932,Ajman,25.41111,55.43504,Asia/Dubai,0
329,1279159,Ajmer,26.44976,74.64116,Asia/Kolkata,0
330,1279158,Ajnala,31.84473,74.76295,Asia/Kolkata,0
331,1278094,Ajodhya,26.79909,82.2047,Asia/Kolkata,0
332,1279154,Ajra,16.11601,74.21097,Asia/Kolkata,0
333,1512086,Akademgorodok,54.8523,83.106,Asia/Novosibirsk,0
334,8504958,Akademicheskoe,60.01375,30.39471,Europe/Moscow,0
335,1279147,Akalkot,17.52532,76.20611,Asia/Kolkata,0
336,1279144,Akaltara,22.02463,82.42641,Asia/Kolkata,0
337,1847966,Akashi,34.63333,134.98333,Asia/Tokyo,0
338,144410,Akbarabad,29.2464,52.7793,Asia/Tehran,0
339,1279134,Akbarpur,26.42953,82.53431,Asia/Kolkata,0
340,1279135,Akbarpur,26.38371,79.94926,Asia/Kolkata,0
341,2507646,Akbou,36.4575,4.53494,Africa/Algiers,0
342,752627,Akcaabat,41.02121,39.57146,Europe/Istanbul,0
343,324944,Akcakale,36.71111,38.9475,Europe/Istanbul,0
344,752584,Akcakoca,41.08663,31.11623,Europe/Istanbul,0
345,324768,Akdagmadeni,39.66028,35.88361,Europe/Istanbul,0
346,2727234,Akersberga,59.47944,18.29967,Europe/Stockholm,0
347,220448,Aketi,2.73877,23.78326,Africa/Lubumbashi,0
348,615860,Akhaltsikhe,41.63901,42.98262,Asia/Tbilisi,0
349,324698,Akhisar,38.91852,27.84006,Europe/Istanbul,0
350,361661,Akhmim,26.56217,31.74503,Africa/Cairo,0
351,583798,Akhtubinsk,48.27955,46.17217,Europe/Volgograd,0
352,583785,Akhtyrskiy,44.8546,38.3031,Europe/Moscow,0
353,1865449,Aki,33.5,133.9,Asia/Tokyo,0
354,2296564,Akim Oda,5.92665,-0.98577,Africa/Accra,0
355,2113126,Akita,39.71667,140.11667,Asia/Tokyo,1
356,2113719,Akitashi,39.71667,140.1,Asia/Tokyo,0
357,1279123,Akividu,16.58225,81.38112,Asia/Kolkata,0
358,7302805,Akkarampalle,13.65,79.42,Asia/Kolkata,0
359,1526797,Akkol',53.29617,69.59997,Asia/Almaty,0
360,1279115,Aklera,24.41288,76.56719,Asia/Kolkata,0
361,1279105,Akola,20.70957,76.9981,Asia/Kolkata,0
362,2235776,Akonolinga,3.76667,12.25,Africa/Douala,0
363,1184752,Akora,34.00361,72.12611,Asia/Karachi,0
364,1279094,Akot,21.0963,77.0588,Asia/Kolkata,0
365,2473913,Akouda,35.8691,10.5653,Africa/Tunis,0
366,2293107,Akoupe,6.38423,-3.88759,Africa/Abidjan,0
367,5145476,Akron,41.08144,-81.51901,America/New_York,0
368,324496,Aksaray,38.37255,34.02537,Europe/Istanbul,0
369,583673,Aksay,47.25838,39.86675,Europe/Moscow,0
370,324490,Aksehir,38.3575,31.41639,Europe/Istanbul,0
371,1524298,Aksu,52.07287,76.9039,Asia/Almaty,0
372,1525462,Aksu,42.4219,69.82795,Asia/Almaty,0
373,344420,Aksum,14.12448,38.72444,Africa/Addis_Ababa,0
374,610612,Aktau,43.64806,51.17222,Asia/Aqtau,0
375,2350886,Aku,6.70902,7.31826,Africa/Lagos,0
376,1865401,Akune,32.01667,130.2,Asia/Tokyo,0
377,2350841,Akure,7.25256,5.19312,Africa/Lagos,0
378,2633274,Akureyri,65.68353,-18.0878,Atlantic/Reykjavik,0
379,2350806,Akwanga,8.91077,8.40655,Africa/Lagos,0
380,2304931,Akwatia,6.04024,-0.80876,Africa/Accra,0
381,752288,Akyazi,40.685,30.62222,Europe/Istanbul,0
382,108841,Al 'Ula,26.60853,37.92316,Asia/Riyadh,0
383,99608,Al `Amarah,31.83588,47.14399,Asia/Baghdad,0
384,361495,Al `Ayyat,29.61972,31.2575,Africa/Cairo,0
385,285111,Al `Ayzariyah,31.77078,35.26917,Asia/Hebron,0
386,99548,Al `Aziziyah,32.90941,45.06359,Asia/Baghdad,0
387,89087,Al Abyar,32.19,20.59653,Africa/Tripoli,0
388,285839,Al Ahmadi,29.07694,48.08389,Asia/Kuwait,0
389,292913,Al Ain,24.19167,55.76056,Asia/Dubai,0
390,174018,Al Bab,36.37051,37.5157,Asia/Damascus,0
391,361478,Al Badari,26.99257,31.41554,Africa/Cairo,0
392,109953,Al Bahah,20.01288,41.46767,Asia/Riyadh,0
393,361457,Al Bajur,30.43026,31.03681,Africa/Cairo,0
394,361435,Al Balyana,26.23568,32.00347,Africa/Cairo,0
395,99532,Al Basrah,30.53302,47.79747,Asia/Baghdad,0
396,388349,Al Basrah al Qadimah,30.50316,47.81507,Asia/Baghdad,0
397,109915,Al Battaliyah,25.43333,49.63333,Asia/Riyadh,0
398,361394,Al Bawiti,28.34919,28.86591,Africa/Cairo,0
399,89055,Al Bayda',32.76272,21.75506,Africa/Tripoli,0
400,79836,Al Bayda',13.98523,45.57272,Asia/Aden,0
401,285108,Al Birah,31.91001,35.21645,Asia/Hebron,0
402,109878,Al Bukayriyah,26.14422,43.65933,Asia/Riyadh,0
403,281161,Al Burayj,31.43944,34.40306,Asia/Gaza,0
404,289317,Al Buraymi,24.25088,55.79312,Asia/Muscat,0
405,285811,Al Fahahil,29.0825,48.13028,Asia/Kuwait,0
406,99454,Al Fallujah,33.34913,43.78599,Asia/Baghdad,0
407,285815,Al Farwaniyah,29.2775,47.95861,Asia/Kuwait,0
408,361329,Al Fashn,28.82431,30.89948,Africa/Cairo,0
409,99446,Al Faw,29.97421,48.47309,Asia/Baghdad,0
410,361320,Al Fayyum,29.30995,30.8418,Africa/Cairo,0
411,285812,Al Fintas,29.17389,48.12111,Asia/Kuwait,0
412,292878,Al Fujayrah,25.11641,56.34141,Asia/Dubai,0
413,361213,Al Hamul,31.31146,31.14766,Africa/Cairo,0
414,173819,Al Harak,32.74932,36.30994,Asia/Damascus,0
415,99369,Al Harithah,30.58481,47.76114,Asia/Baghdad,0
416,379427,Al Hasaheisa,14.75264,33.29836,Africa/Khartoum,0
417,173811,Al Hasakah,36.50237,40.74772,Asia/Damascus,0
418,361179,Al Hawamidiyah,29.9,31.25,Africa/Cairo,0
419,379416,Al Hawatah,13.41667,34.63333,Africa/Khartoum,0
420,99350,Al Hayy,32.17419,46.04345,Asia/Baghdad,0
421,79455,Al Hazm,16.16406,44.77692,Asia/Aden,0
422,379406,Al Hilaliyya,14.9398,33.234,Africa/Khartoum,0
423,99347,Al Hillah,32.46367,44.41963,Asia/Baghdad,0
424,99344,Al Hindiyah,32.54671,44.22765,Asia/Baghdad,0
425,2558545,Al Hoceima,35.25165,-3.93723,Africa/Casablanca,0
426,79415,Al Hudaydah,14.79781,42.95452,Asia/Aden,0
427,109571,Al Hufuf,25.36457,49.56532,Asia/Riyadh,0
428,361103,Al Ibrahimiyah,30.71877,31.56299,Africa/Cairo,0
429,2219960,Al Jadid,27.05,14.4,Africa/Tripoli,0
430,285799,Al Jahra',29.3375,47.65806,Asia/Kuwait,0
431,361029,Al Jamaliyah,31.18086,31.86518,Africa/Cairo,0
432,88962,Al Jawf,24.1989,23.29093,Africa/Tripoli,0
433,360995,Al Jizah,30.00808,31.21093,Africa/Cairo,0
434,250637,Al Jubayhah,32.02581,35.86458,Asia/Amman,0
435,109435,Al Jubayl,27.01122,49.65825,Asia/Riyadh,0
436,109417,Al Jumum,21.61694,39.69806,Asia/Riyadh,0
437,289199,Al Khaburah,23.98864,57.09838,Asia/Muscat,0
438,109380,Al Khafji,28.43905,48.49132,Asia/Riyadh,0
439,360928,Al Khankah,30.21035,31.36812,Africa/Cairo,0
440,360923,Al Kharijah,25.45141,30.54635,Africa/Cairo,0
441,289962,Al Khawr,25.68389,51.50583,Asia/Qatar,0
442,2219905,Al Khums,32.64861,14.26191,Africa/Tripoli,0
443,173598,Al Kiswah,33.3581,36.2419,Asia/Damascus,0
444,99131,Al Kut,32.5128,45.81817,Asia/Baghdad,0
445,289174,Al Liwa',24.53611,56.56556,Asia/Muscat,0
446,360829,Al Mahallah al Kubra,30.97063,31.1669,Africa/Cairo,0
447,285782,Al Mahbulah,29.145,48.13028,Asia/Kuwait,0
448,379149,Al Manaqil,14.2459,32.9891,Africa/Khartoum,0
449,285778,Al Manqaf,29.09611,48.13278,Asia/Kuwait,0
450,360773,Al Manshah,26.47686,31.8035,Africa/Cairo,0
451,360761,Al Mansurah,31.03637,31.38069,Africa/Cairo,0
452,360754,Al Manzilah,31.15815,31.937,Africa/Cairo,0
453,88903,Al Marj,32.48798,20.83174,Africa/Tripoli,0
454,2473540,Al Marsa,36.87818,10.32466,Africa/Tunis,0
455,360716,Al Matariyah,31.18287,32.03108,Africa/Cairo,0
456,99071,Al Mawsil al Jadidah,36.33306,43.1049,Asia/Baghdad,0
457,173480,Al Mayadin,35.01982,40.45154,Asia/Damascus,0
458,379102,Al Mijlad,11.03333,27.73333,Africa/Khartoum,0
459,360686,Al Minya,28.10988,30.7503,Africa/Cairo,0
460,99062,Al Miqdadiyah,33.97861,44.93694,Asia/Baghdad,0
461,99060,Al Mishkhab,31.80437,44.4893,Asia/Baghdad,0
462,109131,Al Mithnab,25.86012,44.22228,Asia/Riyadh,0
463,109101,Al Mubarraz,25.41,49.58083,Asia/Riyadh,0
464,290332,Al Muharraq,26.25722,50.61194,Asia/Bahrain,0
465,78754,Al Mukalla,14.54248,49.12424,Asia/Aden,0
466,109059,Al Munayzilah,25.38333,49.66667,Asia/Riyadh,0
467,99039,Al Musayyib,32.77872,44.29005,Asia/Baghdad,0
468,379062,Al Qadarif,14.03493,35.38344,Africa/Khartoum,0
469,360615,Al Qanatir al Khayriyah,30.19327,31.13703,Africa/Cairo,0
470,360612,Al Qanayat,30.6188,31.46099,Africa/Cairo,0
471,6967865,Al Qararah,31.37389,34.34085,Asia/Gaza,0
472,173361,Al Qaryatayn,34.22956,37.24066,Asia/Damascus,0
473,108927,Al Qatif,26.5208,50.02452,Asia/Riyadh,0
474,108918,Al Qaysumah,28.31117,46.12729,Asia/Riyadh,0
475,379014,Al Qitena,14.8648,32.3668,Africa/Khartoum,0
476,88835,Al Qubbah,32.76163,22.24237,Africa/Tripoli,0
477,173334,Al Qunaytirah,33.12595,35.82461,Asia/Damascus,0
478,360542,Al Qurayn,30.61618,31.73514,Africa/Cairo,0
479,108648,Al Qurayyat,31.33176,37.34282,Asia/Riyadh,0
480,360531,Al Qusayr,26.10426,34.27793,Africa/Cairo,0
481,173322,Al Qusayr,34.50914,36.57975,Asia/Damascus,0
482,360526,Al Qusiyah,27.4402,30.81841,Africa/Cairo,0
483,173312,Al Qutayfah,33.73848,36.60071,Asia/Damascus,0
484,250461,Al Quwaysimah,31.9167,35.95,Asia/Amman,0
485,286282,Al Sohar,24.3643,56.74681,Asia/Muscat,0
486,108773,Al Wajh,26.24551,36.45249,Asia/Riyadh,0
487,289915,Al Wakrah,25.17151,51.60337,Asia/Qatar,0
488,360464,Al Wasitah,29.33778,31.20556,Africa/Cairo,0
489,284999,Al Yamun,32.48563,35.23011,Asia/Hebron,0
490,92430,Al-Hamdaniya,36.27093,43.37758,Asia/Baghdad,0
491,582432,Al'met'yevsk,54.90442,52.3154,Europe/Moscow,0
492,4829762,Alabaster,33.24428,-86.81638,America/Chicago,0
493,1731744,Alabel,6.10179,125.29048,Asia/Manila,0
494,752278,Alaca,40.16833,34.8425,Europe/Istanbul,0
495,6332439,Alafaya,28.5641,-81.2114,America/New_York,0
496,2447938,Alaghsas,17.0187,8.0168,Africa/Niamey,0
497,802078,Alagir,43.04222,44.22222,Europe/Moscow,0
498,3408100,Alagoa Grande,-7.15833,-35.63,America/Fortaleza,0
499,3472766,Alagoinhas,-12.13556,-38.41917,America/Bahia,0
500,3624955,Alajuela,10.01625,-84.21163,America/Costa_Rica,0
501,3569370,Alamar,23.15833,-82.27694,America/Havana,0
502,5322737,Alameda,37.76521,-122.24164,America/Los_Angeles,0
503,1731686,Alaminos,14.06391,121.24649,Asia/Manila,0
504,4670074,Alamo,26.18369,-98.12306,America/Chicago,0
505,3533107,Alamo,20.91063,-97.67485,America/Mexico_City,0
506,5454627,Alamogordo,32.89953,-105.96027,America/Denver,0
507,1279068,Aland,17.56425,76.56854,Asia/Kolkata,0
508,1279066,Alandi,18.67756,73.89868,Asia/Kolkata,0
509,1279064,Alandur,13.0025,80.20611,Asia/Kolkata,0
510,1279061,Alangayam,12.62239,78.75158,Asia/Kolkata,0
511,1279058,Alangulam,8.86404,77.49937,Asia/Kolkata,0
512,324190,Alanya,36.54375,31.99982,Europe/Istanbul,0
513,1511954,Alapayevsk,57.85158,61.69627,Asia/Yekaterinburg,0
514,752184,Alapli,41.1814,31.38514,Europe/Istanbul,0
515,2522297,Alaquas,39.45568,-0.461,Europe/Madrid,0
516,1084740,Alarobia,-18.96667,47.73333,Indian/Antananarivo,0
517,324172,Alasehir,38.35083,28.51718,Europe/Istanbul,0
518,583437,Alatyr',54.8421,46.5813,Europe/Moscow,0
519,3183364,Alba,44.6999,8.0347,Europe/Rome,0
520,686578,Alba Iulia,46.06667,23.58333,Europe/Bucharest,0
521,2522258,Albacete,38.99424,-1.85643,Europe/Madrid,0
522,2522250,Albal,39.4,-0.41667,Europe/Madrid,0
523,3183356,Albano Laziale,41.72748,12.659,Europe/Rome,0
524,2077963,Albany,-35.0031,117.86595,Australia/Perth,0
525,4179320,Albany,31.57851,-84.15574,America/New_York,0
526,5106834,Albany,42.65258,-73.75623,America/New_York,0
527,5322850,Albany,37.88687,-122.29775,America/Los_Angeles,0
528,5710756,Albany,44.63651,-123.10593,America/Los_Angeles,0
529,3866425,Albardon,-31.43722,-68.52556,America/Argentina/San_Juan,0
530,4452303,Albemarle,35.35014,-80.20006,America/New_York,0
531,3183343,Albenga,44.04997,8.21829,Europe/Rome,0
532,5016024,Albert Lea,43.64801,-93.36827,America/Chicago,0
533,2624906,Albertslund,55.65691,12.36381,Europe/Copenhagen,0
534,3038266,Albertville,45.67452,6.39061,Europe/Paris,0
535,4829791,Albertville,34.26759,-86.20887,America/Chicago,0
536,3038261,Albi,43.9298,2.148,Europe/Paris,0
537,3183319,Albignasego,45.34705,11.86781,Europe/Rome,0
538,2759915,Alblasserdam,51.86583,4.66111,Europe/Amsterdam,0
539,2522208,Albolote,37.23088,-3.6551,Europe/Madrid,0
540,8858123,Alborada Jaltenco,19.66194,-99.06889,America/Mexico_City,0
541,2522203,Alboraya,39.5,-0.35,Europe/Madrid,0
542,2958595,Albstadt,48.21644,9.02596,Europe/Berlin,0
543,174448,Albu Kamal,34.45226,40.91854,Asia/Damascus,0
544,2272222,Albufeira,37.08819,-8.2503,Europe/Lisbon,0
545,5454711,Albuquerque,35.08449,-106.65114,America/Denver,0
546,2178174,Albury,-36.07494,146.92394,Australia/Sydney,0
547,2272215,Alcabideche,38.73366,-9.40928,Europe/Lisbon,0
548,2522165,Alcala de Guadaira,37.33791,-5.83951,Europe/Madrid,0
549,3130616,Alcala de Henares,40.48205,-3.35996,Europe/Madrid,0
550,2522160,Alcala la Real,37.4614,-3.92301,Europe/Madrid,0
551,3714932,Alcalde Diaz,9.12016,-79.55641,America/Panama,0
552,2525755,Alcamo,37.9779,12.96473,Europe/Rome,0
553,3130606,Alcaniz,41.05,-0.13333,Europe/Madrid,0
554,2522152,Alcantarilla,37.96939,-1.21714,Europe/Madrid,0
555,2522131,Alcazar de San Juan,39.39011,-3.20827,Europe/Madrid,0
556,713716,Alchevs'k,48.46893,38.81669,Europe/Zaporozhye,0
557,3130583,Alcobendas,40.54746,-3.64197,Europe/Madrid,0
558,3130564,Alcorcon,40.34582,-3.82487,Europe/Madrid,0
559,2522098,Alcoy,38.70545,-0.47432,Europe/Madrid,0
560,2522091,Alcudia,39.85316,3.12138,Europe/Madrid,0
561,2522077,Aldaia,39.46569,-0.46005,Europe/Madrid,0
562,2027968,Aldan,58.61021,125.39613,Asia/Yakutsk,0
563,3866367,Alderetes,-26.81667,-65.13333,America/Argentina/Tucuman,0
564,2657540,Aldershot,51.24827,-0.76389,Europe/London,0
565,4670146,Aldine,29.93245,-95.38021,America/Chicago,0
566,2657528,Aldridge,52.60549,-1.91715,Europe/London,0
567,2381659,Aleg,17.0481,-13.9209,Africa/Nouakchott,0
568,3472666,Alegre,-20.76361,-41.53306,America/Sao_Paulo,0
569,3472638,Alegrete,-29.78306,-55.79194,America/Sao_Paulo,0
570,583350,Aleksandrov,56.39516,38.71216,Europe/Moscow,0
571,583041,Aleksandrovsk,59.1581,57.5695,Asia/Yekaterinburg,0
572,582993,Aleksandrovskoye,44.71417,43.00083,Europe/Moscow,0
573,3104132,Aleksandrow Lodzki,51.81965,19.30384,Europe/Warsaw,0
574,582846,Alekseyevka,55.63,37.8,Europe/Moscow,0
575,582956,Alekseyevka,50.6309,38.6903,Europe/Moscow,0
576,582750,Aleksin,54.50503,37.0674,Europe/Moscow,0
577,601138,Aleksotas,54.88333,23.9,Europe/Vilnius,0
578,3472609,Alem Paraiba,-21.88778,-42.70444,America/Sao_Paulo,0
579,3038230,Alencon,48.43333,0.08333,Europe/Paris,0
580,3407980,Alenquer,-1.94167,-54.73833,America/Santarem,0
581,170063,Aleppo,36.20124,37.16117,Asia/Damascus,0
582,3038224,Ales,44.13333,4.08333,Europe/Paris,0
583,144269,Aleshtar,33.86419,48.26258,Asia/Tehran,0
584,3183299,Alessandria,44.90924,8.61007,Europe/Rome,0
585,3163392,Alesund,62.47225,6.15492,Europe/Oslo,0
586,361058,Alexandria,31.21564,29.95527,Africa/Cairo,0
587,686502,Alexandria,43.98333,25.33333,Europe/Bucharest,0
588,4314550,Alexandria,31.31129,-92.44514,America/Chicago,0
589,736928,Alexandroupoli,40.84995,25.87644,Europe/Athens,0
590,1511783,Aleysk,52.4926,82.7822,Asia/Omsk,0
591,2522057,Alfafar,39.41667,-0.38333,Europe/Madrid,0
592,2958533,Alfeld,51.98382,9.81989,Europe/Berlin,0
593,3472603,Alfenas,-21.42917,-45.94722,America/Sao_Paulo,0
594,3038213,Alfortville,48.80575,2.4204,Europe/Paris,0
595,2657508,Alfreton,53.09766,-1.38376,Europe/London,0
596,2958516,Alfter,50.73333,7.01667,Europe/Berlin,0
597,2522013,Algeciras,36.13326,-5.45051,Europe/Madrid,0
598,2522012,Algemesi,39.19042,-0.43572,Europe/Madrid,0
599,2271985,Alges,38.70245,-9.22936,Europe/Lisbon,0
600,3130383,Algete,40.59711,-3.49743,Europe/Madrid,0
601,3183284,Alghero,40.55969,8.31953,Europe/Rome,0
602,2507480,Algiers,36.7525,3.04197,Africa/Algiers,0
603,4883078,Algonquin,42.16558,-88.29425,America/Chicago,0
604,3130380,Algorta,43.34927,-3.0094,Europe/Madrid,0
605,2521992,Alhama de Murcia,37.85103,-1.42507,Europe/Madrid,0
606,5323060,Alhambra,34.09529,-118.12701,America/Los_Angeles,0
607,2521986,Alhaurin de la Torre,36.66401,-4.56139,Europe/Madrid,0
608,2521985,Alhaurin el Grande,36.643,-4.68728,Europe/Madrid,0
609,324106,Aliaga,38.79975,26.97203,Europe/Istanbul,0
610,1731528,Aliaga,15.5,120.843,Asia/Manila,0
611,1279027,Alibag,18.64813,72.87579,Asia/Kolkata,0
612,2521978,Alicante,38.34517,-0.48149,Europe/Madrid,0
613,4670234,Alice,27.75225,-98.06972,America/Chicago,0
614,2077895,Alice Springs,-23.69748,133.88362,Australia/Darwin,0
615,1731486,Alicia,16.77936,121.69734,Asia/Manila,0
616,1279023,Aliganj,27.49358,79.17127,Asia/Kolkata,0
617,1279017,Aligarh,27.88145,78.07464,Asia/Kolkata,0
618,143921,Aligudarz,33.40063,49.6949,Asia/Tehran,0
619,261614,Alimos,37.91033,23.72361,Europe/Athens,0
620,2726756,Alingsas,57.93033,12.53345,Europe/Stockholm,0
621,1279005,Alipur,28.79862,77.13314,Asia/Kolkata,0
622,1184655,Alipur,29.38464,70.91157,Asia/Karachi,0
623,5323163,Aliso Viejo,33.56504,-117.72712,America/Los_Angeles,0
624,1023309,Aliwal North,-30.69366,26.71141,Africa/Johannesburg,0
625,2521964,Aljaraque,37.26989,-7.02313,Europe/Madrid,0
626,2759899,Alkmaar,52.63167,4.74861,Europe/Amsterdam,0
627,2395635,Allada,6.66547,2.15138,Africa/Porto-Novo,0
628,1278994,Allahabad,25.44478,81.84322,Asia/Kolkata,0
629,1023287,Allanridge,-27.75431,26.64382,Africa/Johannesburg,0
630,4145805,Allapattah,25.81454,-80.22394,America/New_York,0
631,3038159,Allauch,43.33573,5.48201,Europe/Paris,0
632,3866242,Allen,-38.97736,-67.82714,America/Argentina/Salta,0
633,4670300,Allen,33.10317,-96.67055,America/Chicago,0
634,4984016,Allen Park,42.25754,-83.21104,America/Detroit,0
635,4984029,Allendale,42.97225,-85.95365,America/Detroit,0
636,3533056,Allende,18.15514,-94.39289,America/Mexico_City,0
637,4018761,Allende,28.34124,-100.85111,America/Monterrey,0
638,4018762,Allende,25.27673,-100.01442,America/Monterrey,0
639,5178127,Allentown,40.60843,-75.49018,America/New_York,0
640,1278985,Alleppey,9.49004,76.3264,Asia/Kolkata,0
641,5145607,Alliance,40.91534,-81.10593,America/New_York,0
642,5178165,Allison Park,40.55951,-79.95867,America/New_York,0
643,2657471,Alloa,56.11586,-3.78997,Europe/London,0
644,2661810,Allschwil,47.55074,7.53599,Europe/Zurich,0
645,5884083,Alma,48.55009,-71.6491,America/Toronto,0
646,2271961,Almada,38.67902,-9.1569,Europe/Lisbon,0
647,2521923,Almansa,38.86917,-1.09713,Europe/Madrid,0
648,2521909,Almassora,39.94729,-0.06313,Europe/Madrid,0
649,1526384,Almaty,43.25654,76.92848,Asia/Almaty,0
650,3407903,Almeirim,-1.52333,-52.58167,America/Santarem,0
651,2759887,Almelo,52.35667,6.6625,Europe/Amsterdam,0
652,3472520,Almenara,-16.18361,-40.69444,America/Sao_Paulo,0
653,2521893,Almendralejo,38.68316,-6.40747,Europe/Madrid,0
654,2759879,Almere Stad,52.37025,5.21413,Europe/Amsterdam,0
655,2521886,Almeria,36.83814,-2.45974,Europe/Madrid,0
656,3472518,Almirante Tamandare,-25.32472,-49.31,America/Sao_Paulo,0
657,2521857,Almonte,37.2647,-6.51667,Europe/Madrid,0
658,1278974,Almora,29.59726,79.66088,Asia/Kolkata,0
659,2521855,Almoradi,38.10879,-0.79197,Europe/Madrid,0
660,6615442,Almozara,41.66124,-0.90169,Europe/Madrid,0
661,2521847,Almunecar,36.73393,-3.69072,Europe/Madrid,0
662,1278973,Alnavar,15.42727,74.74111,Asia/Kolkata,0
663,4036284,Alofi,-19.05952,-169.91867,Pacific/Niue,0
664,5711099,Aloha,45.49428,-122.86705,America/Los_Angeles,0
665,1278969,Along,28.16951,94.8006,Asia/Kolkata,0
666,1734745,Alor Gajah,2.3804,102.2089,Asia/Kuala_Lumpur,0
667,1736309,Alor Setar,6.12104,100.36014,Asia/Kuala_Lumpur,0
668,1278964,Alot,23.76336,75.55662,Asia/Kolkata,0
669,3599788,Alotenango,14.48028,-90.8075,America/Guatemala,0
670,4179574,Alpharetta,34.07538,-84.29409,America/New_York,0
671,2759875,Alphen aan den Rijn,52.12917,4.65546,Europe/Amsterdam,0
672,3183187,Alpignano,45.09346,7.52392,Europe/Rome,0
673,3569136,Alquizar,22.80583,-82.58417,America/Havana,0
674,2958141,Alsdorf,50.87673,6.16399,Europe/Berlin,0
675,2958128,Alsfeld,50.75185,9.27082,Europe/Berlin,0
676,4883207,Alsip,41.66892,-87.73866,America/Chicago,0
677,8334624,Alt-Hohenschoenhausen,52.54608,13.5013,Europe/Berlin,0
678,3866163,Alta Gracia,-31.65292,-64.42826,America/Argentina/Cordoba,0
679,5323525,Altadena,34.18973,-118.13118,America/Los_Angeles,0
680,3649408,Altagracia de Orituco,9.86005,-66.38139,America/Caracas,0
681,1516393,Altai,46.37222,96.25833,Asia/Hovd,0
682,3407882,Altamira,-3.20333,-52.20639,America/Santarem,0
683,3533005,Altamira,22.39215,-97.93867,America/Monterrey,0
684,5711149,Altamont,42.20681,-121.73722,America/Los_Angeles,0
685,4145941,Altamonte Springs,28.66111,-81.36562,America/New_York,0
686,3183178,Altamura,40.82664,16.54952,Europe/Rome,0
687,1529651,Altay,47.84864,88.13361,Asia/Urumqi,0
688,2958024,Altdorf,49.3856,11.3573,Europe/Berlin,0
689,2521804,Altea,38.59885,-0.05139,Europe/Madrid,0
690,2957886,Altena,51.29472,7.67337,Europe/Berlin,0
691,2957773,Altenburg,50.98763,12.43684,Europe/Berlin,0
692,3532989,Altepexi,18.36886,-97.29832,America/Mexico_City,0
693,2957185,Altglienicke,52.41116,13.5355,Europe/Berlin,0
694,3487903,Alto Barinas,8.5931,-70.2261,America/Caracas,0
695,3824536,Alto Lucero,20.95361,-97.44194,America/Mexico_City,0
696,2657408,Alton,51.14931,-0.97469,Europe/London,0
697,4232679,Alton,38.8906,-90.18428,America/Chicago,0
698,2911296,Altona,53.55,9.93333,Europe/Berlin,0
699,9972579,Altona Meadows,-37.88413,144.78367,Australia/Melbourne,0
700,5178195,Altoona,40.51868,-78.39474,America/New_York,0
701,3407797,Altos,-5.03806,-42.46,America/Fortaleza,0
702,3532969,Altotonga,19.76613,-97.24514,America/Mexico_City,0
703,2657402,Altrincham,53.38752,-2.34848,Europe/London,0
704,6691073,Altstadt Nord,50.93893,6.95752,Europe/Berlin,0
705,6691072,Altstadt Sud,50.93331,6.95954,Europe/Berlin,0
706,472072,Altuf'yevskiy,55.88333,37.58333,Europe/Moscow,0
707,4529292,Altus,34.63813,-99.33398,America/Chicago,0
708,5323566,Alum Rock,37.36605,-121.82718,America/Los_Angeles,0
709,713513,Alushta,44.67728,34.4097,Europe/Simferopol,0
710,1278941,Aluva,10.10468,76.3565,Asia/Kolkata,0
711,7279600,Aluva,10.10764,76.35158,Asia/Kolkata,0
712,143748,Alvand,36.3187,49.1678,Asia/Tehran,0
713,3472417,Alvares Machado,-22.07944,-51.47194,America/Sao_Paulo,0
714,3514663,Alvaro Obregon,19.35867,-99.20329,America/Mexico_City,0
715,4670592,Alvin,29.42385,-95.2441,America/Chicago,1
716,1278946,Alwar,27.56246,76.625,Asia/Kolkata,0
717,601084,Alytus,54.4,24.05,Europe/Vilnius,0
718,2956715,Alzenau in Unterfranken,50.0888,9.06455,Europe/Berlin,0
719,2956710,Alzey,49.74657,8.11513,Europe/Berlin,0
720,2522129,Alzira,39.15,-0.43333,Europe/Madrid,0
721,245338,Am Timan,11.0297,20.2827,Africa/Ndjamena,0
722,1731212,Amadeo,14.17056,120.92361,Asia/Manila,0
723,2271772,Amadora,38.75382,-9.23083,Europe/Lisbon,0
724,1865387,Amagasaki,34.71667,135.41667,Asia/Tokyo,0
725,1865375,Amagi,33.41804,130.65413,Asia/Tokyo,0
726,1651591,Amahai,-3.33984,128.91975,Asia/Jayapura,0
727,2350249,Amaigbo,5.78917,7.83829,Africa/Lagos,0
728,1278935,Amalapuram,16.57868,82.00609,Asia/Kolkata,0
729,265252,Amaliada,37.8,21.35,Europe/Athens,0
730,1278931,Amalner,21.03983,75.05887,Asia/Kolkata,0
731,3569024,Amancio,20.8225,-77.57861,America/Havana,0
732,1184569,Amangarh,34.00583,71.93,Asia/Karachi,0
733,3407758,Amaraji,-8.38306,-35.4525,America/Recife,0
734,3472370,Amargosa,-13.03028,-39.60472,America/Bahia,0
735,5516233,Amarillo,35.222,-101.8313,America/Chicago,0
736,1278903,Amarnath,19.2,73.16667,Asia/Kolkata,0
737,1278899,Amarpatan,24.31371,80.97703,Asia/Kolkata,0
738,1278895,Amarpur,25.03967,86.90247,Asia/Kolkata,0
739,752015,Amasya,40.65333,35.83306,Europe/Istanbul,0
740,3599735,Amatitlan,14.4875,-90.61528,America/Guatemala,0
741,2525725,Amato,38.38333,16.13333,Europe/Rome,0
742,1278871,Ambad,19.61301,75.78906,Asia/Kolkata,0
743,1278868,Ambah,26.70423,78.22678,Asia/Kolkata,0
744,1278862,Ambajogai,18.73312,76.38616,Asia/Kolkata,0
745,1278860,Ambala,30.36099,76.79782,Asia/Kolkata,0
746,1251574,Ambalangoda,6.2355,80.0538,Asia/Colombo,0
747,1083968,Ambalavao,-21.83333,46.93333,Indian/Antananarivo,0
748,1083724,Ambanja,-13.68333,48.45,Indian/Antananarivo,0
749,1083676,Ambarakaraka,-13.5,48.86667,Indian/Antananarivo,0
750,1651555,Ambarawa,-7.26333,110.3975,Asia/Jakarta,0
751,1278841,Ambasamudram,8.71068,77.4519,Asia/Kolkata,0
752,3660689,Ambato,-1.24908,-78.61675,America/Guayaquil,0
753,1083257,Ambato Boeny,-16.46667,46.71667,Indian/Antananarivo,0
754,1083239,Ambatofinandrahana,-20.55284,46.80365,Indian/Antananarivo,0
755,1082992,Ambatolampy,-19.38333,47.41667,Indian/Antananarivo,0
756,1082639,Ambatondrazaka,-17.83333,48.41667,Indian/Antananarivo,0
757,1278840,Ambattur,13.09818,80.16152,Asia/Kolkata,0
758,2956656,Amberg,49.44287,11.86267,Europe/Berlin,0
759,1278827,Ambikapur,23.11892,83.19537,Asia/Kolkata,0
760,1082243,Ambilobe,-13.2,49.05,Indian/Antananarivo,0
761,1081863,Amboanjo,-22,47.85,Indian/Antananarivo,0
762,1081790,Amboasary,-25.03333,46.38333,Indian/Antananarivo,0
763,1079777,Ambohitrolomahitsy,-18.7,47.68333,Indian/Antananarivo,0
764,1651531,Ambon,-3.69543,128.18141,Asia/Jayapura,0
765,1079088,Ambositra,-20.53034,47.24344,Indian/Antananarivo,0
766,1079048,Ambovombe,-25.17838,46.08722,Indian/Antananarivo,0
767,1278815,Ambur,12.79163,78.71644,Asia/Kolkata,0
768,4018582,Ameca,20.54629,-104.04508,America/Mexico_City,0
769,3532899,Amecameca,19.12384,-98.76649,America/Mexico_City,0
770,5323694,American Canyon,38.17492,-122.2608,America/Los_Angeles,0
771,5844096,American Fork,40.3769,-111.79576,America/Denver,0
772,3472343,Americana,-22.73917,-47.33139,America/Sao_Paulo,0
773,3472338,Americo Brasiliense,-21.72444,-48.10167,America/Sao_Paulo,0
774,4179667,Americus,32.07239,-84.23269,America/New_York,0
775,2759821,Amersfoort,52.155,5.3875,Europe/Amsterdam,0
776,2657356,Amersham,51.66667,-0.61667,Europe/London,0
777,6690592,Amersham on the Hill,51.67468,-0.60742,Europe/London,0
778,3130155,Ames,42.90426,-8.65551,Europe/Madrid,0
779,4846834,Ames,42.03471,-93.61994,America/Chicago,0
780,4929004,Amesbury,42.85842,-70.93005,America/New_York,0
781,1278808,Amet,25.30609,73.9258,Asia/Kolkata,0
782,5107129,Amherst,42.97839,-78.79976,America/New_York,0
783,4929023,Amherst Center,42.37537,-72.51925,America/New_York,0
784,2113115,Ami,36.03333,140.2,Asia/Tokyo,0
785,3037854,Amiens,49.9,2.3,Europe/Paris,0
786,582266,Amin'yevo,55.7,37.46667,Europe/Moscow,0
787,587261,Amirdzhan,40.42639,49.98361,Asia/Baku,0
788,2507169,Amizour,36.64022,4.90131,Africa/Algiers,0
789,1278775,Amla,21.92485,78.12786,Asia/Kolkata,0
790,1278774,Amlagora,22.84616,87.33559,Asia/Kolkata,0
791,1278768,Amli,20.28333,73.01667,Asia/Kolkata,0
792,250441,Amman,31.95522,35.94503,Asia/Amman,0
793,2507155,Ammi Moussa,35.86781,1.11143,Africa/Algiers,0
794,1621060,Amnat Charoen,15.85851,104.62883,Asia/Bangkok,0
795,1278742,Amod,21.99317,72.87047,Asia/Kolkata,0
796,143534,Amol,36.46961,52.35072,Asia/Tehran,0
797,2271680,Amora,38.62961,-9.11557,Europe/Lisbon,0
798,3130137,Amorebieta,43.21667,-2.73333,Europe/Madrid,0
799,5884588,Amos,48.56688,-78.11624,America/Toronto,0
800,3532881,Amozoc de Mota,19.04611,-98.045,America/Mexico_City,0
801,1078966,Ampahana,-14.75,50.21667,Indian/Antananarivo,0
802,1078553,Ampanihy,-24.6937,44.74581,Indian/Antananarivo,0
803,1251459,Ampara,7.29754,81.68202,Asia/Colombo,0
804,1078446,Amparafaravola,-17.5876,48.22391,Indian/Antananarivo,0
805,3472311,Amparo,-22.70111,-46.76444,America/Sao_Paulo,0
806,1078171,Ampasimanolotra,-18.81667,49.06667,Indian/Antananarivo,0
807,1948015,Amphoe Sikhiu,14.89944,101.70833,Asia/Bangkok,0
808,8858118,Ampliacion San Mateo (Colonia Solidaridad),19.61639,-99.14722,America/Mexico_City,0
809,3130131,Amposta,40.70995,0.57856,Europe/Madrid,0
810,1278718,Amravati,20.93333,77.75,Asia/Kolkata,0
811,1278715,Amreli,21.59983,71.21169,Asia/Kolkata,0
812,1278710,Amritsar,31.63661,74.87476,Asia/Kolkata,0
813,1278708,Amroha,28.90314,78.46984,Asia/Kolkata,0
814,1278707,Amroli,21.25084,72.83878,Asia/Kolkata,0
815,2759798,Amstelveen,52.30083,4.86389,Europe/Amsterdam,0
816,2759794,Amsterdam,52.37403,4.88969,Europe/Amsterdam,0
817,5107152,Amsterdam,42.93869,-74.18819,America/New_York,0
818,6544881,Amsterdam-Zuidoost,52.3075,4.97222,Europe/Amsterdam,0
819,2782555,Amstetten,48.1229,14.87206,Europe/Vienna,0
820,1278703,Amta,22.58344,88.01039,Asia/Kolkata,0
821,1278698,Amudalavalasa,18.41025,83.90295,Asia/Kolkata,0
822,1651461,Amuntai,-2.41773,115.24941,Asia/Makassar,0
823,2027749,Amursk,50.23685,136.88136,Asia/Vladivostok,0
824,713504,Amvrosiyivka,47.79348,38.47768,Europe/Kiev,0
825,2962361,An Muileann gCearr,53.53333,-7.35,Europe/Dublin,0
826,173193,An Nabk,34.02547,36.72837,Asia/Damascus,0
827,98860,An Najaf,32.02594,44.34625,Asia/Baghdad,0
828,98854,An Nasiriyah,31.05799,46.25726,Asia/Baghdad,0
829,108617,An Nimas,19.14547,42.12009,Asia/Riyadh,0
830,378699,An Nuhud,12.7,28.43333,Africa/Khartoum,0
831,281109,An Nusayrat,31.44861,34.3925,Asia/Gaza,0
832,3486270,Anaco,9.43889,-64.47278,America/Caracas,0
833,5785657,Anacortes,48.5126,-122.61267,America/Los_Angeles,0
834,5323810,Anaheim,33.83529,-117.9145,America/Los_Angeles,0
835,4022908,Anahuac,27.24056,-100.13222,America/Matamoros,0
836,1278692,Anaimalai,10.58226,76.9347,Asia/Kolkata,0
837,1879682,Anak,38.51083,125.49417,Asia/Pyongyang,0
838,1278688,Anakapalle,17.69134,83.00395,Asia/Kolkata,0
839,323828,Anamur,36.07508,32.83691,Europe/Istanbul,0
840,1865309,Anan,33.91667,134.65,Asia/Tokyo,0
841,1278685,Anand,22.55251,72.9552,Asia/Kolkata,0
842,1278676,Anandpur,31.23926,76.50253,Asia/Kolkata,0
843,3407669,Ananindeua,-1.36556,-48.37222,America/Belem,0
844,1278672,Anantapur,14.6794,77.59877,Asia/Kolkata,0
845,582182,Anapa,44.89084,37.3239,Europe/Moscow,0
846,3472287,Anapolis,-16.32667,-48.95278,America/Sao_Paulo,0
847,3472284,Anastacio,-20.48361,-55.80694,America/Campo_Grande,0
848,3865840,Anatuya,-28.46064,-62.83472,America/Argentina/Cordoba,0
849,1818116,Anbu,23.44895,116.68092,Asia/Shanghai,0
850,1879672,Anbyon-up,39.0425,127.52389,Asia/Pyongyang,0
851,8285452,Ancaster,43.21806,-79.98716,America/Toronto,0
852,2349951,Anchau,10.96245,8.39233,Africa/Lagos,0
853,5879400,Anchorage,61.21806,-149.90028,America/Anchorage,0
854,3183089,Ancona,43.5942,13.50337,Europe/Rome,0
855,3899695,Ancud,-41.8707,-73.81622,America/Santiago,0
856,2038650,Anda,46.40202,125.31454,Asia/Shanghai,0
857,3947740,Andahuaylas,-13.65556,-73.38722,America/Lima,0
858,3689905,Andalucia,4.17061,-76.16641,America/Bogota,0
859,1076454,Andapa,-14.65,49.65,Indian/Antananarivo,0
860,2803204,Andenne,50.48941,5.09513,Europe/Brussels,0
861,2956206,Andernach,50.43109,7.40425,Europe/Berlin,0
862,4569298,Anderson,34.50344,-82.65013,America/New_York,0
863,4917592,Anderson,40.10532,-85.68025,America/Indiana/Indianapolis,0
864,1514588,Andijon,40.78206,72.34424,Asia/Tashkent,0
865,1076194,Andilamena,-17.01009,48.57313,Indian/Antananarivo,0
866,1278625,Andippatti,9.99854,77.62122,Asia/Kolkata,0
867,1148658,Andkhoy,36.95293,65.12376,Asia/Kabul,0
868,1278621,Andol,17.81458,78.07713,Asia/Kolkata,0
869,1846986,Andong,36.56556,128.725,Asia/Seoul,0
870,3041563,Andorra la Vella,42.50779,1.52109,Europe/Andorra,0
871,2657324,Andover,51.21135,-1.49393,Europe/London,0
872,5016374,Andover,45.2333,-93.29134,America/Chicago,0
873,3472254,Andradas,-22.06806,-46.56917,America/Sao_Paulo,0
874,3472248,Andradina,-20.89611,-51.37944,America/Sao_Paulo,0
875,581928,Andreyevskoye,55.55487,37.92566,Europe/Moscow,0
876,3183072,Andria,41.23117,16.29797,Europe/Rome,0
877,3104115,Andrychow,49.85497,19.33834,Europe/Warsaw,0
878,2521738,Andujar,38.03922,-4.05077,Europe/Madrid,0
879,2367990,Aneho,6.22798,1.5919,Africa/Lome,0
880,1278609,Anekal,12.7111,77.69557,Asia/Kolkata,0
881,1278602,Angamali,10.2,76.4,Asia/Kolkata,0
882,2027667,Angarsk,52.53667,103.88639,Asia/Irkutsk,0
883,1730749,Angat,14.9285,121.03,Asia/Manila,0
884,1730737,Angeles City,15.15,120.58333,Asia/Manila,0
885,2956093,Angermuende,53.01499,13.99924,Europe/Berlin,0
886,3037656,Angers,47.46667,-0.55,Europe/Paris,0
887,3037612,Anglet,43.47664,-1.51346,Europe/Paris,0
888,4670866,Angleton,29.16941,-95.43188,America/Chicago,0
889,3577284,Angochi,12.51667,-69.95,America/Aruba,0
890,3899629,Angol,-37.79519,-72.71636,America/Santiago,0
891,1730713,Angono,14.5266,121.1536,Asia/Manila,0
892,3037598,Angouleme,45.65,0.15,Europe/Paris,0
893,3472177,Angra dos Reis,-23.00667,-44.31806,America/Sao_Paulo,0
894,1514581,Angren,41.01667,70.14361,Asia/Tashkent,0
895,3183063,Angri,40.73815,14.5707,Europe/Rome,0
896,1278593,Angul,20.84089,85.10192,Asia/Kolkata,0
897,3472138,Anicuns,-16.46111,-49.96167,America/Sao_Paulo,0
898,1278588,Anjad,22.04171,75.05519,Asia/Kolkata,0
899,661164,Anjala,60.68333,26.83333,Europe/Helsinki,0
900,1278580,Anjangaon,21.16516,77.3091,Asia/Kolkata,0
901,1278573,Anjar,23.11316,70.02671,Asia/Kolkata,0
902,1818051,Anjiang,27.31944,110.10306,Asia/Shanghai,0
903,1865294,Anjo,34.95828,137.08054,Asia/Tokyo,0
904,1073482,Anjozorobe,-18.4,47.86667,Indian/Antananarivo,0
905,1879613,Anju,39.61778,125.66472,Asia/Pyongyang,0
906,1789065,Ankang,32.68,109.01722,Asia/Shanghai,0
907,323786,Ankara,39.91987,32.85427,Europe/Istanbul,0
908,1072879,Ankazoabo,-22.28333,44.51667,Indian/Antananarivo,0
909,1072849,Ankazobe,-18.31667,47.11667,Indian/Antananarivo,0
910,1072711,Ankazondandy,-18.7,47.78333,Indian/Antananarivo,0
911,4846960,Ankeny,41.72971,-93.60577,America/Chicago,0
912,1278553,Ankleshwar,21.63236,72.99001,Asia/Kolkata,0
913,2304548,Anloga,5.79473,0.89728,Africa/Accra,0
914,2759746,Anloo,53.04417,6.70139,Europe/Amsterdam,0
915,1818016,Anlu,31.2575,113.67833,Asia/Shanghai,0
916,5885383,Anmore,49.31637,-122.85263,America/Vancouver,0
917,4984247,Ann Arbor,42.27756,-83.74088,America/Detroit,0
918,581671,Anna,51.4842,40.4299,Europe/Moscow,0
919,2506999,Annaba,36.9,7.76667,Africa/Algiers,0
920,2956005,Annaberg-Buchholz,50.57953,13.00627,Europe/Berlin,0
921,1865290,Annaka,36.33011,138.89585,Asia/Tokyo,0
922,4347242,Annapolis,38.97845,-76.49218,America/New_York,0
923,162199,Annau,37.88757,58.516,Asia/Ashgabat,0
924,3037543,Annecy,45.9,6.11667,Europe/Paris,0
925,3037540,Annecy-le-Vieux,45.91971,6.14393,Europe/Paris,0
926,3037538,Annemasse,46.19439,6.23775,Europe/Paris,0
927,1278540,Annigeri,15.42513,75.4335,Asia/Kolkata,0
928,506117,Annino,55.58333,37.6,Europe/Moscow,0
929,819552,Annino,55.58316,37.26019,Europe/Moscow,0
930,4830198,Anniston,33.65983,-85.83163,America/Chicago,0
931,3037514,Annonay,45.23969,4.67075,Europe/Paris,0
932,1278539,Annur,11.23616,77.10514,Asia/Kolkata,0
933,264888,Ano Liosia,38.08333,23.7,Europe/Athens,0
934,5016450,Anoka,45.19774,-93.38718,America/Chicago,0
935,1817993,Anqing,30.51365,117.04723,Asia/Shanghai,0
936,1817990,Anqiu,36.43417,119.1925,Asia/Shanghai,0
937,2803160,Ans,50.6623,5.52029,Europe/Brussels,0
938,1846918,Ansan-si,37.32361,126.82194,Asia/Seoul,0
939,2955936,Ansbach,49.30481,10.5931,Europe/Berlin,0
940,1846912,Anseong,37.01083,127.27028,Asia/Seoul,0
941,3689833,Anserma,5.33278,-75.79111,America/Bogota,0
942,3323063,Ansfelden,47.965,13.04944,Europe/Vienna,0
943,2038632,Anshan,41.12361,122.99,Asia/Shanghai,0
944,1278534,Anshing,20.0409,77.31501,Asia/Kolkata,0
945,1817968,Anshun,26.25,105.93333,Asia/Shanghai,0
946,5281551,Ansonia,41.34621,-73.079,America/New_York,0
947,1278532,Anta,25.15,76.3,Asia/Kolkata,0
948,323779,Antakya,36.20655,36.15722,Europe/Istanbul,0
949,1071296,Antalaha,-14.90033,50.27876,Indian/Antananarivo,0
950,323777,Antalya,36.90812,30.69556,Europe/Istanbul,0
951,1070940,Antananarivo,-18.91368,47.53613,Indian/Antananarivo,0
952,1070661,Antanifotsy,-19.65,47.31667,Indian/Antananarivo,0
953,5324105,Antelope,38.70824,-121.32995,America/Los_Angeles,0
954,2521710,Antequera,37.01938,-4.56123,Europe/Madrid,0
955,5551498,Anthem,33.86726,-112.14682,America/Phoenix,0
956,1278622,Anthiyur,11.57506,77.59043,Asia/Kolkata,0
957,3037456,Antibes,43.56241,7.12777,Europe/Paris,0
958,3599699,Antigua Guatemala,14.56111,-90.73444,America/Guatemala,0
959,3587362,Antiguo Cuscatlan,13.66492,-89.25319,America/El_Salvador,0
960,5324200,Antioch,38.00492,-121.80579,America/Los_Angeles,0
961,1730501,Antipolo,14.62578,121.12251,Asia/Manila,0
962,3899539,Antofagasta,-23.65236,-70.3954,America/Santiago,0
963,3472048,Antonina,-25.42861,-48.71194,America/Sao_Paulo,0
964,1052944,Antonio Enes,-16.2325,39.90861,Africa/Maputo,0
965,3037423,Antony,48.75,2.3,Europe/Paris,0
966,713259,Antratsyt,48.11503,39.09128,Europe/Zaporozhye,0
967,2657255,Antrim,54.7,-6.2,Europe/London,0
968,1069166,Antsirabe,-19.86586,47.03333,Indian/Antananarivo,0
969,1069129,Antsiranana,-12.2787,49.29171,Indian/Antananarivo,0
970,1068971,Antsohihy,-14.87959,47.98751,Indian/Antananarivo,0
971,1068955,Antsohimbondrona,-13.08333,48.85,Indian/Antananarivo,0
972,2803138,Antwerpen,51.21989,4.40346,Europe/Brussels,0
973,1278510,Anupgarh,29.19111,73.20861,Asia/Kolkata,0
974,1278508,Anuppur,23.10344,81.69083,Asia/Kolkata,0
975,1278507,Anupshahr,28.35748,78.26914,Asia/Kolkata,0
976,1251081,Anuradhapura,8.31223,80.41306,Asia/Colombo,0
977,1817952,Anxiang,29.4,112.15,Asia/Shanghai,0
978,2292852,Anyama,5.49462,-4.05183,Africa/Abidjan,0
979,1785294,Anyang,36.096,114.38278,Asia/Shanghai,0
980,1846898,Anyang-si,37.3925,126.92694,Asia/Seoul,0
981,1511494,Anzhero-Sudzhensk,56.081,86.0285,Asia/Novokuznetsk,0
982,3183005,Anzio,41.45263,12.62157,Europe/Rome,0
983,2045311,Aoji-ri,42.52056,130.39528,Asia/Pyongyang,0
984,2130658,Aomorishi,40.81667,140.73333,Asia/Tokyo,0
985,1278498,Aonla,28.27402,79.16521,Asia/Kolkata,0
986,3182997,Aosta,45.73764,7.31722,Europe/Rome,0
987,2506795,Aoulef,26.96667,1.08333,Africa/Algiers,0
988,5551535,Apache Junction,33.41505,-111.54958,America/Phoenix,0
989,1730413,Apalit,14.95333,120.77,Asia/Manila,0
990,2304389,Apam,5.28483,-0.73711,Africa/Accra,0
991,3532815,Apan,19.71128,-98.45086,America/Mexico_City,0
992,3471949,Aparecida,-22.84694,-45.22972,America/Sao_Paulo,0
993,6316406,Aparecida de Goiania,-16.82333,-49.24389,America/Sao_Paulo,0
994,3471940,Aparecida do Taboado,-20.08667,-51.09361,America/Campo_Grande,0
995,1730398,Aparri,18.3566,121.6406,Asia/Manila,0
996,3689798,Apartado,7.88299,-76.62587,America/Bogota,0
997,10628881,Apas,10.34076,123.90261,Asia/Manila,0
998,4018404,Apaseo el Alto,20.45748,-100.6224,America/Mexico_City,0
999,4018403,Apaseo el Grande,20.54495,-100.68462,America/Mexico_City,0
1000,3204793,Apatin,45.67111,18.98472,Europe/Belgrade,0
1001,581357,Apatity,67.56414,33.4031,Europe/Moscow,0
1002,4018400,Apatzingan,19.08864,-102.35704,America/Mexico_City,0
1003,2759706,Apeldoorn,52.21,5.96944,Europe/Amsterdam,0
1004,4452808,Apex,35.73265,-78.85029,America/New_York,0
1005,4035413,Apia,-13.83333,-171.76666,Pacific/Apia,0
1006,3471927,Apiai,-24.50944,-48.8425,America/Sao_Paulo,0
1007,3532792,Apizaco,19.41333,-98.14358,America/Mexico_City,0
1008,2395568,Aplahoue,6.93333,1.68333,Africa/Porto-Novo,0
1009,4018390,Apodaca,25.75976,-100.16287,America/Monterrey,0
1010,3407440,Apodi,-5.66417,-37.79889,America/Fortaleza,0
1011,2955770,Apolda,51.02624,11.51638,Europe/Berlin,0
1012,2349558,Apomu,7.35156,4.18335,Africa/Lagos,0
1013,3587345,Apopa,13.80722,-89.17917,America/El_Salvador,0
1014,4146166,Apopka,28.67617,-81.51186,America/New_York,0
1015,713245,Apostolove,47.66003,33.71369,Europe/Kiev,0
1016,5016494,Apple Valley,44.73191,-93.21772,America/Chicago,0
1017,5324363,Apple Valley,34.50083,-117.18588,America/Los_Angeles,0
1018,5244080,Appleton,44.26193,-88.41538,America/Chicago,0
1019,581321,Aprelevka,55.55194,37.0801,Europe/Moscow,0
1020,3182957,Aprilia,41.59452,12.65419,Europe/Rome,0
1021,581313,Apsheronsk,44.46472,39.73417,Europe/Moscow,0
1022,3471910,Apucarana,-23.55083,-51.46083,America/Sao_Paulo,0
1023,250774,Aqaba,29.52667,35.00778,Asia/Amman,0
1024,610613,Aqsay,51.1681,52.99782,Asia/Oral,0
1025,610611,Aqtobe,50.27969,57.20718,Asia/Aqtobe,0
1026,3471896,Aquidauana,-20.47111,-55.78722,America/Campo_Grande,0
1027,3407407,Aquiraz,-3.90139,-38.39111,America/Fortaleza,0
1028,388065,Ar Rabiyah,29.295,47.93306,Asia/Kuwait,0
1029,378493,Ar Rahad,12.71667,30.65,Africa/Khartoum,0
1030,284890,Ar Ram wa Dahiyat al Barid,31.84945,35.2342,Asia/Hebron,0
1031,250336,Ar Ramtha,32.55917,36.00694,Asia/Amman,0
1032,172955,Ar Raqqah,35.95283,39.00788,Asia/Damascus,0
1033,108435,Ar Rass,25.86944,43.4973,Asia/Riyadh,0
1034,172946,Ar Rastan,34.92653,36.73238,Asia/Damascus,0
1035,289888,Ar Rayyan,25.29194,51.42444,Asia/Qatar,0
1036,385038,Ar Rifa',26.13,50.555,Asia/Bahrain,0
1037,285728,Ar Riqqah,29.14583,48.09472,Asia/Kuwait,0
1038,2473257,Ar Rudayyif,34.3827,8.15549,Africa/Tunis,0
1039,98685,Ar Rumaythah,31.52845,45.20377,Asia/Baghdad,0
1040,285726,Ar Rumaythiyah,29.31167,48.07417,Asia/Kuwait,0
1041,378459,Ar Ruseris,11.8659,34.3869,Africa/Khartoum,0
1042,98677,Ar Rutbah,33.03718,40.28586,Asia/Baghdad,0
1043,292688,Ar Ruways,24.11028,52.73056,Asia/Dubai,0
1044,1278483,Ara,25.56314,84.67137,Asia/Kolkata,0
1045,3471872,Aracaju,-10.91111,-37.07167,America/Maceio,0
1046,3689759,Aracataca,10.59181,-74.18983,America/Bogota,0
1047,3407378,Aracati,-4.56167,-37.76972,America/Fortaleza,0
1048,3471859,Aracatuba,-21.20889,-50.43278,America/Sao_Paulo,0
1049,3471854,Araci,-11.33333,-38.96667,America/Bahia,0
1050,3471849,Aracoiaba da Serra,-23.50528,-47.61417,America/Sao_Paulo,0
1051,3471848,Aracruz,-19.82028,-40.27333,America/Sao_Paulo,0
1052,3471846,Aracuai,-16.84972,-42.07028,America/Sao_Paulo,0
1053,686254,Arad,46.18333,21.31667,Europe/Bucharest,0
1054,3471840,Aragarcas,-15.8975,-52.25083,America/Sao_Paulo,0
1055,3407357,Araguaina,-7.19111,-48.20722,America/Araguaina,0
1056,3471830,Araguari,-18.64722,-48.18722,America/Sao_Paulo,0
1057,1865207,Arai,37.00059,138.2259,Asia/Tokyo,0
1058,143127,Arak,34.09174,49.68916,Asia/Tehran,0
1059,1278471,Arakkonam,13.08449,79.67053,Asia/Kolkata,0
1060,751971,Arakli,40.93854,40.05842,Europe/Istanbul,0
1061,1529641,Aral,40.54184,81.26566,Asia/Shanghai,0
1062,1526265,Aral,46.8,61.66667,Asia/Qyzylorda,0
1063,1278466,Arambagh,22.88333,87.78333,Asia/Kolkata,0
1064,1511466,Aramil,56.6977,60.8369,Asia/Yekaterinburg,0
1065,2349529,Aramoko-Ekiti,7.70483,5.04054,Africa/Lagos,0
1066,3129877,Aranda de Duero,41.67041,-3.6892,Europe/Madrid,0
1067,4018348,Arandas,20.70519,-102.34635,America/Mexico_City,0
1068,1278458,Arang,21.19639,81.96912,Asia/Kolkata,0
1069,1278455,Arangaon,18.67458,75.17976,Asia/Kolkata,0
1070,793111,Arangelovac,44.30694,20.56,Europe/Belgrade,0
1071,1278454,Arani,12.66987,79.28555,Asia/Kolkata,0
1072,3129857,Aranjuez,40.03108,-3.60246,Europe/Madrid,0
1073,1278448,Arantangi,10.17235,78.99118,Asia/Kolkata,0
1074,1621020,Aranyaprathet,13.69276,102.50128,Asia/Bangkok,0
1075,3407327,Arapiraca,-9.7525,-36.66111,America/Maceio,0
1076,3471798,Arapongas,-23.41944,-51.42444,America/Sao_Paulo,0
1077,3471772,Ararangua,-28.93575,-49.49538,America/Sao_Paulo,0
1078,3471766,Araraquara,-21.79444,-48.17556,America/Sao_Paulo,0
1079,3471758,Araras,-22.35694,-47.38417,America/Sao_Paulo,0
1080,174991,Ararat,39.83166,44.70489,Asia/Yerevan,0
1081,3407258,Arari,-3.45361,-44.78,America/Fortaleza,0
1082,1278446,Araria,26.14845,87.51404,Asia/Kolkata,0
1083,3407243,Araripina,-7.57611,-40.49833,America/Recife,0
1084,3471715,Araruama,-22.87278,-42.34306,America/Sao_Paulo,0
1085,3689718,Arauca,7.08471,-70.75908,America/Bogota,0
1086,3471697,Araucaria,-25.59306,-49.41028,America/Sao_Paulo,0
1087,3899462,Arauco,-37.2463,-73.31752,America/Santiago,0
1088,3649017,Araure,9.56009,-69.21475,America/Caracas,0
1089,2100633,Arawa,-6.22977,155.56598,Pacific/Bougainville,0
1090,3471691,Araxa,-19.59333,-46.94056,America/Sao_Paulo,0
1091,1730225,Arayat,15.1505,120.7697,Asia/Manila,0
1092,343663,Arba Minch',6.03333,37.55,Africa/Addis_Ababa,0
1093,2506623,Arbatache,36.63773,3.37127,Africa/Algiers,0
1094,2657215,Arbroath,56.56317,-2.58736,Europe/London,0
1095,4347371,Arbutus,39.25455,-76.69997,America/New_York,0
1096,5324477,Arcadia,34.13973,-118.03534,America/Los_Angeles,0
1097,5558953,Arcata,40.86652,-124.08284,America/Los_Angeles,0
1098,4018320,Arcelia,18.31847,-100.28148,America/Mexico_City,0
1099,2521676,Archena,38.11631,-1.30043,Europe/Madrid,0
1100,3182904,Arcore,45.62675,9.32454,Europe/Rome,0
1101,3471683,Arcos,-20.28194,-45.53944,America/Sao_Paulo,0
1102,2521665,Arcos de la Frontera,36.75075,-5.81056,Europe/Madrid,0
1103,1278432,Arcot,12.90569,79.31897,Asia/Kolkata,0
1104,3407216,Arcoverde,-8.41889,-37.05389,America/Recife,0
1105,3037157,Arcueil,48.79993,2.33256,Europe/Paris,0
1106,143083,Ardabil,38.2498,48.2933,Asia/Tehran,0
1107,751952,Ardahan,41.10871,42.70222,Europe/Istanbul,0
1108,143073,Ardakan,32.31001,54.01747,Asia/Tehran,0
1109,3182897,Ardea,41.60742,12.54158,Europe/Rome,0
1110,7260806,Arden-Arcade,38.6025,-121.37854,America/Los_Angeles,0
1111,751949,Ardesen,41.19111,40.9875,Europe/Istanbul,0
1112,143052,Ardestan,33.3761,52.3694,Asia/Tehran,0
1113,4529469,Ardmore,34.17426,-97.14363,America/Chicago,0
1114,581179,Ardon,43.1772,44.29702,Europe/Moscow,0
1115,4562635,Arecibo,18.47245,-66.71573,America/Puerto_Rico,0
1116,3407194,Areia Branca,-4.95611,-37.13694,America/Fortaleza,0
1117,343593,Areka,7.06667,37.7,Africa/Addis_Ababa,0
1118,3162955,Arendal,58.46151,8.77253,Europe/Oslo,0
1119,3947322,Arequipa,-16.39889,-71.535,America/Lima,0
1120,3182886,Arese,45.55048,9.07741,Europe/Rome,0
1121,3182884,Arezzo,43.46276,11.88068,Europe/Rome,0
1122,3129636,Arganda,40.30076,-3.43722,Europe/Madrid,0
1123,6544487,Arganzuela,40.40021,-3.69618,Europe/Madrid,0
1124,3037051,Argentan,48.75,-0.01667,Europe/Paris,0
1125,3037044,Argenteuil,48.95,2.25,Europe/Paris,0
1126,264670,Argos,37.63333,22.73333,Europe/Athens,0
1127,581126,Argun,43.29713,45.87454,Europe/Moscow,0
1128,2349431,Argungu,12.74482,4.52514,Africa/Lagos,0
1129,264516,Argyroupoli,37.90594,23.75035,Europe/Athens,0
1130,751931,Arhavi,41.35121,41.30456,Europe/Istanbul,0
1131,2506519,Arhribs,36.79361,4.31158,Africa/Algiers,0
1132,2624652,Arhus,56.15674,10.21076,Europe/Copenhagen,0
1133,2473247,Ariana,36.86012,10.19337,Africa/Tunis,0
1134,3899361,Arica,-18.4746,-70.29792,America/Santiago,0
1135,3182851,Ariccia,41.72063,12.6723,Europe/Rome,0
1136,8199394,Ariel,32.1065,35.18449,Asia/Jerusalem,0
1137,1184370,Arifwala,30.29399,73.07354,Asia/Karachi,0
1138,3689589,Ariguani,10.25,-74,America/Bogota,0
1139,3575051,Arima,10.63333,-61.28333,America/Port_of_Spain,0
1140,1730171,Aringay,16.394,120.3545,Asia/Manila,0
1141,3665202,Aripuana,-9.16667,-60.63333,America/Cuiaba,0
1142,3665199,Ariquemes,-9.91333,-63.04083,America/Porto_Velho,0
1143,361546,Arish,31.13159,33.79844,Africa/Cairo,0
1144,3436287,Aristobulo del Valle,-27.09625,-54.89626,America/Argentina/Cordoba,0
1145,1068865,Arivonimamo,-19.01667,47.18333,Indian/Antananarivo,0
1146,1278405,Ariyalur,11.13849,79.07556,Asia/Kolkata,0
1147,1651226,Arjawinangun,-6.64528,108.41028,Asia/Jakarta,0
1148,3689570,Arjona,10.25444,-75.34389,America/Bogota,0
1149,1278393,Arkalgud,12.76521,76.05622,Asia/Kolkata,0
1150,1526193,Arkalyk,50.24915,66.92027,Asia/Almaty,0
1151,581049,Arkhangel'sk,64.5401,40.5433,Europe/Moscow,0
1152,3036938,Arles,43.67681,4.63031,Europe/Paris,0
1153,4671240,Arlington,32.73569,-97.10807,America/Chicago,0
1154,4929180,Arlington,42.41537,-71.15644,America/New_York,0
1155,5785868,Arlington,48.19871,-122.12514,America/Los_Angeles,0
1156,4883555,Arlington Heights,42.08836,-87.98063,America/Chicago,0
1157,2803073,Arlon,49.68333,5.81667,Europe/Brussels,0
1158,3471487,Armacao de Buzios,-22.74694,-41.88167,America/Sao_Paulo,0
1159,2077579,Armadale,-32.14607,116.0093,Australia/Perth,0
1160,616631,Armavir,40.15446,44.03815,Asia/Yerevan,0
1161,580922,Armavir,44.9892,41.1234,Europe/Moscow,0
1162,3689560,Armenia,4.53389,-75.68111,America/Bogota,0
1163,3036903,Armentieres,50.68568,2.88214,Europe/Paris,0
1164,4018227,Armeria,18.9378,-103.96417,America/Mexico_City,0
1165,2177671,Armidale,-30.50828,151.67123,Australia/Sydney,0
1166,2521590,Armilla,37.14386,-3.62534,Europe/Madrid,0
1167,713203,Armyans'k,46.10919,33.69206,Europe/Simferopol,0
1168,2759661,Arnhem,51.98,5.91111,Europe/Amsterdam,1
1169,2657030,Arnold,53,-1.13333,Europe/London,0
1170,4347426,Arnold,39.03206,-76.50274,America/New_York,0
1171,4375087,Arnold,38.43283,-90.37762,America/Chicago,0
1172,2955471,Arnsberg,51.38333,8.08333,Europe/Berlin,0
1173,2955439,Arnstadt,50.84048,10.95198,Europe/Berlin,0
1174,1278365,Aron,24.38109,77.41739,Asia/Kolkata,0
1175,2521582,Arona,28.09962,-16.68102,Atlantic/Canary,0
1176,10628607,Aroor,9.8694,76.30498,Asia/Kolkata,0
1177,8948708,Arpino,40.88882,14.32015,Europe/Rome,0
1178,2292755,Arrah,6.67342,-3.96938,Africa/Abidjan,0
1179,3471451,Arraial do Cabo,-22.96611,-42.02778,America/Sao_Paulo,0
1180,3714637,Arraijan,8.95,-79.65,America/Panama,0
1181,3036784,Arras,50.29301,2.78186,Europe/Paris,0
1182,3116503,Arrasate / Mondragon,43.06441,-2.48977,Europe/Madrid,0
1183,2521570,Arrecife,28.96302,-13.54769,Atlantic/Canary,0
1184,2271473,Arrentela,38.61667,-9.1,Europe/Lisbon,0
1185,3816739,Arriaga,16.2375,-93.90184,America/Mexico_City,0
1186,2506404,Arris,35.25881,6.34706,Africa/Algiers,0
1187,3471428,Arroio do Meio,-29.40111,-51.945,America/Sao_Paulo,0
1188,3471422,Arroio Grande,-32.2375,-53.08694,America/Sao_Paulo,0
1189,3865424,Arroyito,-31.42022,-63.05002,America/Argentina/Cordoba,0
1190,5324802,Arroyo Grande,35.11859,-120.59073,America/Los_Angeles,0
1191,3568342,Arroyo Naranjo,23.03611,-82.37167,America/Havana,0
1192,6956646,Arroyo Naranjo,23.0144,-82.3031,America/Havana,0
1193,3865385,Arroyo Seco,-33.15489,-60.50863,America/Argentina/Cordoba,0
1194,2027468,Arsen'yev,44.15254,133.27791,Asia/Vladivostok,0
1195,1278354,Arsikere,13.31446,76.25704,Asia/Kolkata,0
1196,751838,Arsin,40.95271,39.92674,Europe/Istanbul,0
1197,580850,Arsk,56.09151,49.87783,Europe/Moscow,0
1198,2725201,Arsta,59.2978,18.0514,Europe/Stockholm,0
1199,1148106,Art Khwajah,37.08571,69.47958,Asia/Kabul,0
1200,264559,Arta,39.16056,20.98528,Europe/Athens,0
1201,174979,Artashat,39.96144,44.54447,Asia/Yerevan,0
1202,3129329,Arteixo,43.30482,-8.50749,Europe/Madrid,0
1203,2027456,Artem,43.3595,132.18887,Asia/Vladivostok,0
1204,258038,Artemida,37.96667,24,Europe/Athens,0
1205,3568312,Artemisa,22.81306,-82.76194,America/Havana,0
1206,713174,Artemivs'k,48.59559,37.99987,Europe/Kiev,0
1207,1511368,Artemovskiy,57.3555,61.86865,Asia/Yekaterinburg,0
1208,5324862,Artesia,33.86585,-118.08312,America/Los_Angeles,0
1209,3443758,Artigas,-30.4,-56.46667,America/Montevideo,0
1210,713163,Artsyz,45.99194,29.41824,Europe/Kiev,0
1211,3471395,Artur Nogueira,-22.57306,-47.1725,America/Sao_Paulo,0
1212,751817,Artvin,41.18161,41.82172,Europe/Istanbul,0
1213,235039,Arua,3.02013,30.91105,Africa/Kampala,0
1214,2521519,Arucas,28.11983,-15.52325,Atlantic/Canary,0
1215,3471393,Aruja,-23.39611,-46.32083,America/Sao_Paulo,0
1216,1278345,Arukutti,9.86667,76.35,Asia/Kolkata,0
1217,1278343,Arumuganeri,8.5688,78.09091,Asia/Kolkata,0
1218,1278340,Aruppukkottai,9.50842,78.09449,Asia/Kolkata,0
1219,161325,Arusha,-3.36667,36.68333,Africa/Dar_es_Salaam,0
1220,5412199,Arvada,39.80276,-105.08748,America/Denver,0
1221,2032814,Arvayheer,46.26389,102.775,Asia/Ulaanbaatar,0
1222,1278335,Arvi,20.99585,78.22914,Asia/Kolkata,0
1223,5324903,Arvin,35.20913,-118.82843,America/Los_Angeles,0
1224,1526168,Arys,42.42965,68.80463,Asia/Almaty,0
1225,580724,Arzamas,55.39485,43.83992,Europe/Moscow,0
1226,3182765,Arzano,40.90959,14.26519,Europe/Rome,0
1227,580716,Arzgir,45.37278,44.22056,Europe/Moscow,0
1228,3182757,Arzignano,45.52027,11.33446,Europe/Rome,0
1229,359900,As Saff,29.56472,31.28111,Africa/Cairo,0
1230,172503,As Safirah,36.07696,37.37251,Asia/Damascus,0
1231,164947,As Salamiyah,35.01127,37.05324,Asia/Damascus,0
1232,285704,As Salimiyah,29.33389,48.07611,Asia/Kuwait,0
1233,250258,As Salt,32.03917,35.72722,Asia/Amman,0
1234,98530,As Samawah,31.33198,45.2944,Asia/Baghdad,0
1235,284583,As Samu`,31.39671,35.06611,Asia/Hebron,0
1236,172469,As Sanamayn,33.07227,36.18382,Asia/Damascus,0
1237,288967,As Sib al Jadidah,23.67027,58.18911,Asia/Muscat,0
1238,378271,As Suki,13.31667,33.88333,Africa/Khartoum,0
1239,98463,As Sulaymaniyah,35.56496,45.4329,Asia/Baghdad,0
1240,108048,As Sulayyil,20.46067,45.57792,Asia/Riyadh,0
1241,172408,As Suwayda',32.70896,36.56951,Asia/Damascus,0
1242,288955,As Suwayq,23.84944,57.43861,Asia/Muscat,0
1243,98459,As Suwayrah,32.92556,44.77583,Asia/Baghdad,0
1244,2349276,Asaba,6.19824,6.73187,Africa/Lagos,0
1245,1148311,Asadabad,34.87311,71.14697,Asia/Kabul,0
1246,142872,Asadabad,34.78241,48.11853,Asia/Tehran,0
1247,2113077,Asahi,35.71667,140.65,Asia/Tokyo,0
1248,2130629,Asahikawa,43.77063,142.36489,Asia/Tokyo,0
1249,343409,Asaita,11.56838,41.43869,Africa/Addis_Ababa,0
1250,1907299,Asaka,35.80472,139.60194,Asia/Tokyo,0
1251,1513271,Asaka,40.64153,72.23868,Asia/Tashkent,0
1252,2304220,Asamankese,5.86006,-0.6635,Africa/Accra,0
1253,1839726,Asan,36.78361,127.00417,Asia/Seoul,0
1254,1278320,Asandh,29.52119,76.60552,Asia/Kolkata,0
1255,1278314,Asansol,23.68333,86.98333,Asia/Kolkata,0
1256,343413,Asasa,7.1,39.2,Africa/Addis_Ababa,0
1257,343402,Asbe Teferi,9.08569,40.86708,Africa/Addis_Ababa,0
1258,1511330,Asbest,57.00993,61.45776,Asia/Yekaterinburg,0
1259,5095281,Asbury Park,40.22039,-74.01208,America/New_York,0
1260,2955272,Aschaffenburg,49.97704,9.15214,Europe/Berlin,0
1261,2955224,Ascheberg,51.78333,7.61667,Europe/Berlin,0
1262,2955168,Aschersleben,51.75742,11.46084,Europe/Berlin,0
1263,3182749,Ascoli Piceno,42.85351,13.57395,Europe/Rome,0
1264,2656992,Ascot,51.41082,-0.6748,Europe/London,0
1265,733618,Asenovgrad,42.01667,24.86667,Europe/Sofia,0
1266,3624848,Aserri,9.85876,-84.0923,America/Costa_Rica,0
1267,410096,Ash Shafa,21.0721,40.31185,Asia/Riyadh,0
1268,98629,Ash Shamiyah,31.96257,44.60075,Asia/Baghdad,0
1269,98622,Ash Shatrah,31.40906,46.1727,Asia/Baghdad,0
1270,164328,Ash Shaykh Miskin,32.82944,36.15933,Asia/Damascus,0
1271,359953,Ash Shuhada',30.59618,30.89875,Africa/Cairo,0
1272,580660,Asha,54.9973,57.2722,Asia/Yekaterinburg,0
1273,6217081,Ashburton,-43.89834,171.73011,Pacific/Auckland,0
1274,295629,Ashdod,31.79213,34.64966,Asia/Jerusalem,0
1275,4453035,Asheboro,35.70791,-79.81364,America/New_York,0
1276,4453066,Asheville,35.60095,-82.55402,America/New_York,0
1277,2177565,Ashfield,-33.88834,151.12274,Australia/Sydney,0
1278,2656955,Ashford,51.14648,0.87376,Europe/London,0
1279,162183,Ashgabat,37.95,58.38333,Asia/Ashgabat,0
1280,2130612,Ashibetsu,43.50972,142.18556,Asia/Tokyo,0
1281,1865005,Ashikaga,36.33333,139.45,Asia/Tokyo,0
1282,1864985,Ashiya,34.72807,135.30264,Asia/Tokyo,0
1283,4282757,Ashland,38.47841,-82.63794,America/New_York,0
1284,4929283,Ashland,42.26121,-71.4634,America/New_York,0
1285,5146055,Ashland,40.86867,-82.31822,America/New_York,0
1286,5325011,Ashland,37.69465,-122.11385,America/Los_Angeles,0
1287,5711789,Ashland,42.19458,-122.70948,America/Los_Angeles,0
1288,360048,Ashmun,30.29857,30.97635,Africa/Cairo,0
1289,1278297,Ashoknagar,24.57578,77.73123,Asia/Kolkata,0
1290,7302861,Ashoknagar Kalyangarh,22.86416,88.63701,Asia/Kolkata,0
1291,295620,Ashqelon,31.66926,34.57149,Asia/Jerusalem,0
1292,1278294,Ashta,23.0179,76.72024,Asia/Kolkata,0
1293,1278296,Ashta,16.94943,74.40936,Asia/Kolkata,0
1294,5146089,Ashtabula,41.86505,-80.78981,America/New_York,0
1295,616877,Ashtarak,40.2991,44.36204,Asia/Yerevan,0
1296,2656918,Ashton in Makerfield,53.48333,-2.65,Europe/London,0
1297,2656915,Ashton-under-Lyne,53.48876,-2.0989,Europe/London,0
1298,5244267,Ashwaubenon,44.48221,-88.0701,America/Chicago,0
1299,1730097,Asia,9.5506,122.5164,Asia/Manila,0
1300,1278282,Asifabad,19.35851,79.28415,Asia/Kolkata,0
1301,1278279,Asika,19.61114,84.65998,Asia/Kolkata,0
1302,2557055,Asilah,35.46522,-6.03415,Africa/Casablanca,0
1303,1278278,Asind,25.7342,74.33278,Asia/Kolkata,0
1304,1511309,Asino,56.99987,86.14393,Asia/Novosibirsk,0
1305,624034,Asipovichy,53.3011,28.6386,Europe/Minsk,0
1306,323094,Askale,39.92083,40.695,Europe/Istanbul,0
1307,3336587,Askoy,60.4,5.18333,Europe/Oslo,0
1308,1148205,Asmar,35.03333,71.35809,Asia/Kabul,0
1309,343300,Asmara,15.33805,38.93184,Africa/Asmara,0
1310,3036572,Asnieres-sur-Seine,48.91667,2.28333,Europe/Paris,0
1311,6324583,Aso,32.93726,131.08008,Asia/Tokyo,0
1312,343292,Asosa,10.06667,34.53333,Africa/Addis_Ababa,0
1313,2521510,Aspe,38.34511,-0.76721,Europe/Madrid,0
1314,4347553,Aspen Hill,39.07955,-77.07303,America/New_York,0
1315,264445,Aspropyrgos,38.06134,23.58971,Europe/Athens,0
1316,343386,Assab,13.00917,42.73944,Africa/Asmara,0
1317,2803033,Asse,50.91011,4.19836,Europe/Brussels,0
1318,2525655,Assemini,39.29123,8.99879,Europe/Rome,0
1319,2759633,Assen,52.99667,6.5625,Europe/Amsterdam,0
1320,3471374,Assis,-22.66167,-50.41222,America/Sao_Paulo,0
1321,1526273,Astana,51.1801,71.44598,Asia/Almaty,0
1322,1651112,Astanajapura,-6.8017,108.6311,Asia/Jakarta,0
1323,142679,Astaneh-ye Ashrafiyeh,37.25961,49.94444,Asia/Tehran,0
1324,142676,Astara,38.4291,48.872,Asia/Tehran,0
1325,148445,Astara,38.45598,48.87498,Asia/Baku,0
1326,2759621,Asten,51.40417,5.74861,Europe/Amsterdam,0
1327,3182714,Asti,44.90162,8.20751,Europe/Rome,0
1328,3471368,Astorga,-23.2325,-51.66556,America/Sao_Paulo,0
1329,580497,Astrakhan',46.34968,48.04076,Europe/Volgograd,0
1330,3439389,Asuncion,-25.30066,-57.63591,America/Asuncion,0
1331,3599639,Asuncion Mita,14.33083,-89.71083,America/Guatemala,0
1332,359792,Aswan,24.09082,32.89942,Africa/Cairo,0
1333,359783,Asyut,27.18096,31.18368,Africa/Cairo,0
1334,250198,At Tafilah,30.83752,35.60442,Asia/Amman,0
1335,88562,At Taj,24.20487,23.2857,Africa/Tripoli,0
1336,172349,At Tall,33.61033,36.3107,Asia/Damascus,0
1337,359710,At Tall al Kabir,30.54448,31.78525,Africa/Cairo,0
1338,107959,At Taraf,25.36276,49.72504,Asia/Riyadh,0
1339,1528796,At-Bashi,41.16951,75.80099,Asia/Bishkek,0
1340,2367886,Atakpame,7.53333,1.13333,Africa/Lome,0
1341,3406996,Atalaia,-9.50194,-36.02278,America/Maceio,0
1342,1651103,Atambua,-9.10611,124.8925,Asia/Makassar,0
1343,1864945,Atami,35.08834,139.05325,Asia/Tokyo,0
1344,1219002,Atamyrat,37.83573,65.21058,Asia/Ashgabat,0
1345,77726,Ataq,14.53767,46.83187,Asia/Aden,0
1346,2381334,Atar,20.51686,-13.04987,Africa/Nouakchott,0
1347,2521485,Atarfe,37.22479,-3.68686,Europe/Madrid,0
1348,1278228,Atarra,25.28618,80.57155,Asia/Kolkata,0
1349,5325111,Atascadero,35.48942,-120.67073,America/Los_Angeles,0
1350,4671524,Atascocita,29.99883,-95.1766,America/Chicago,0
1351,6947637,Atasehir,40.9833,29.1167,Europe/Istanbul,0
1352,378231,Atbara,17.70217,33.98638,Africa/Khartoum,0
1353,1526038,Atbasar,51.80652,68.35996,Asia/Almaty,0
1354,2803010,Ath,50.62937,3.77801,Europe/Brussels,0
1355,172374,Ath Thawrah,35.83453,38.54659,Asia/Damascus,0
1356,1278216,Athagarh,20.51999,85.62965,Asia/Kolkata,0
1357,264371,Athens,37.97945,23.71622,Europe/Athens,0
1358,4180386,Athens,33.96095,-83.37794,America/New_York,0
1359,4505542,Athens,39.32924,-82.10126,America/New_York,0
1360,4830668,Athens,34.80287,-86.97167,America/Chicago,0
1361,2656847,Atherton,53.52371,-2.49354,Europe/London,0
1362,200787,Athi River,-1.4563,36.97826,Africa/Nairobi,0
1363,3036460,Athis-Mons,48.70522,2.39147,Europe/Paris,0
1364,2966839,Athlone,53.43333,-7.95,Europe/Dublin,0
1365,1278208,Athni,16.72613,75.06421,Asia/Kolkata,0
1366,2436400,Ati,13.2154,18.3353,Africa/Ndjamena,0
1367,3471335,Atibaia,-23.11694,-46.55028,America/Sao_Paulo,0
1368,1729987,Atimonan,14.0027,121.92078,Asia/Manila,0
1369,580420,Atkarsk,51.87185,45.00775,Europe/Volgograd,0
1370,3532617,Atlacomulco,19.80038,-99.87376,America/Mexico_City,0
1371,4180439,Atlanta,33.749,-84.38798,America/New_York,0
1372,4500546,Atlantic City,39.36428,-74.42293,America/New_York,0
1373,3370352,Atlantis,-33.56668,18.48335,Africa/Johannesburg,0
1374,3532592,Atlixco,18.90815,-98.43613,America/Mexico_City,0
1375,1278201,Atmakur,15.88109,78.58704,Asia/Kolkata,0
1376,4017992,Atotonilco el Alto,20.55079,-102.50942,America/Mexico_City,0
1377,4017984,Atoyac de Alvarez,17.20667,-100.43306,America/Mexico_City,0
1378,1278190,Atrauli,28.02964,78.28571,Asia/Kolkata,0
1379,1847963,Atsugi,35.44272,139.36931,Asia/Tokyo,0
1380,2954932,Attendorn,51.12645,7.90333,Europe/Berlin,0
1381,1278178,Attili,16.7,81.6,Asia/Kolkata,0
1382,1278176,Attingal,8.69282,76.81518,Asia/Kolkata,0
1383,4929399,Attleboro,41.94454,-71.28561,America/New_York,0
1384,1184249,Attock City,33.77311,72.3741,Asia/Karachi,0
1385,1278173,Attur,11.59414,78.60143,Asia/Kolkata,0
1386,3660478,Atuntaqui,0.33247,-78.21371,America/Guayaquil,0
1387,5325187,Atwater,37.34772,-120.60908,America/Los_Angeles,0
1388,610529,Atyrau,47.11667,51.88333,Asia/Oral,0
1389,3036433,Aubagne,43.29276,5.57067,Europe/Paris,0
1390,3036386,Aubervilliers,48.91667,2.38333,Europe/Paris,0
1391,2177513,Auburn,-33.85,151.03333,Australia/Sydney,0
1392,4830796,Auburn,32.60986,-85.48078,America/Chicago,0
1393,4929417,Auburn,42.19454,-71.83563,America/New_York,0
1394,4956976,Auburn,44.09785,-70.23117,America/New_York,0
1395,5107505,Auburn,42.93173,-76.56605,America/New_York,0
1396,5785965,Auburn,47.30732,-122.22845,America/Los_Angeles,0
1397,4984565,Auburn Hills,42.68753,-83.2341,America/Detroit,0
1398,3036281,Auch,43.65,0.58333,Europe/Paris,0
1399,2348892,Auchi,7.06756,6.2636,Africa/Lagos,0
1400,2193733,Auckland,-36.86667,174.76667,Pacific/Auckland,0
1401,3036240,Audincourt,47.48327,6.85341,Europe/Paris,0
1402,2954695,Aue,50.59034,12.70657,Europe/Berlin,0
1403,2954602,Auerbach,50.51155,12.40083,Europe/Berlin,0
1404,2954172,Augsburg,48.37154,10.89851,Europe/Berlin,0
1405,2525646,Augusta,37.24065,15.22121,Europe/Rome,0
1406,4180531,Augusta,33.47097,-81.97484,America/New_York,0
1407,4957003,Augusta,44.31062,-69.77949,America/New_York,0
1408,3406961,Augusto Correa,-1.02167,-46.635,America/Belem,0
1409,776597,Augustow,53.84321,22.97979,Europe/Warsaw,0
1410,3036145,Aulnay-sous-Bois,48.93814,2.49402,Europe/Paris,0
1411,1278156,Aurad,18.25397,77.41761,Asia/Kolkata,0
1412,1278152,Auraiya,26.46517,79.50918,Asia/Kolkata,0
1413,1278149,Aurangabad,19.87757,75.34226,Asia/Kolkata,0
1414,1278148,Aurangabad,24.75389,84.37407,Asia/Kolkata,0
1415,2954006,Aurich,53.46919,7.48232,Europe/Berlin,0
1416,3036016,Aurillac,44.91667,2.45,Europe/Paris,0
1417,1689994,Aurora,13.3476,122.5195,Asia/Manila,0
1418,4883817,Aurora,41.76058,-88.32007,America/Chicago,0
1419,5146233,Aurora,41.31755,-81.34539,America/New_York,0
1420,5412347,Aurora,39.72943,-104.83192,America/Denver,0
1421,1278139,Ausa,18.24728,76.4993,Asia/Kolkata,0
1422,2661666,Aussersihl,47.37752,8.52127,Europe/Zurich,0
1423,4671654,Austin,30.26715,-97.74306,America/Chicago,0
1424,5016884,Austin,43.66663,-92.97464,America/Chicago,0
1425,5146256,Austintown,41.10172,-80.76452,America/New_York,0
1426,4017957,Autlan de Navarro,19.76822,-104.36664,America/Mexico_City,0
1427,3035883,Autun,46.95,4.3,Europe/Paris,0
1428,3035843,Auxerre,47.8,3.56667,Europe/Paris,0
1429,1278130,Avadi,13.1147,80.10981,Asia/Kolkata,0
1430,1278122,Avanigadda,16.02148,80.91808,Asia/Kolkata,0
1431,3471291,Avare,-23.09861,-48.92583,America/Sao_Paulo,0
1432,4035715,Avarua,-21.20778,-159.775,Pacific/Rarotonga,0
1433,713122,Avdiyivka,48.13989,37.74255,Europe/Kiev,0
1434,2742611,Aveiro,40.64427,-8.64554,Europe/Lisbon,0
1435,3436230,Avellaneda,-29.11761,-59.65834,America/Argentina/Cordoba,0
1436,3182650,Avellino,40.91494,14.79103,Europe/Rome,0
1437,5325327,Avenal,36.00412,-120.12903,America/Los_Angeles,0
1438,5095325,Avenel,40.58038,-74.28515,America/New_York,0
1439,4146429,Aventura,25.95648,-80.13921,America/New_York,0
1440,3182640,Aversa,40.97259,14.20745,Europe/Rome,0
1441,3182636,Avezzano,42.02896,13.42641,Europe/Rome,0
1442,3035681,Avignon,43.94834,4.80892,Europe/Paris,0
1443,3129136,Avila,40.65724,-4.69951,Europe/Madrid,0
1444,3129135,Aviles,43.55473,-5.92483,Europe/Madrid,0
1445,1278124,Avinashi,11.19297,77.26865,Asia/Kolkata,0
1446,3035667,Avion,50.41038,2.83053,Europe/Paris,0
1447,5325372,Avocado Heights,34.03612,-117.99118,America/Los_Angeles,0
1448,2525643,Avola,36.9084,15.13937,Europe/Rome,0
1449,3035654,Avon,48.40219,2.72022,Europe/Paris,0
1450,5146277,Avon,41.45171,-82.03542,America/New_York,0
1451,5146282,Avon Center,41.45976,-82.01959,America/New_York,0
1452,5146286,Avon Lake,41.50532,-82.0282,America/New_York,0
1453,5552301,Avondale,33.4356,-112.3496,America/Phoenix,0
1454,580222,Avtovo,59.87167,30.26583,Europe/Moscow,0
1455,580218,Avtury,43.16354,46.0012,Europe/Moscow,0
1456,2219235,Awbari,26.59206,12.78049,Africa/Tripoli,0
1457,364367,Aweil,8.76816,27.40019,Africa/Juba,0
1458,2348783,Awgu,6.07278,7.47739,Africa/Lagos,0
1459,2348773,Awka,6.21269,7.07199,Africa/Lagos,0
1460,359576,Awsim,30.12303,31.13571,Africa/Cairo,0
1461,2303611,Axim,4.86992,-2.24046,Africa/Accra,0
1462,3532545,Axochiapan,18.50307,-98.75219,America/Mexico_City,0
1463,1864873,Ayabe,35.3,135.25,Asia/Tokyo,0
1464,3947019,Ayacucho,-13.15878,-74.22321,America/Lima,0
1465,1525988,Ayagoz,47.96447,80.43437,Asia/Almaty,0
1466,1278100,Ayakudi,10.44992,77.55198,Asia/Kolkata,0
1467,2521456,Ayamonte,37.21329,-7.40807,Europe/Madrid,0
1468,1879544,Ayang-ni,38.24306,125.78,Asia/Pyongyang,0
1469,3689381,Ayapel,8.31372,-75.13982,America/Bogota,0
1470,3946985,Ayaviri,-14.88639,-70.58889,America/Lima,0
1471,322830,Aydin,37.84501,27.83963,Europe/Istanbul,0
1472,250152,Aydun,32.50722,35.8575,Asia/Amman,0
1473,2027296,Aykhal,65.93381,111.4834,Asia/Yakutsk,0
1474,2656719,Aylesbury,51.81665,-0.81458,Europe/London,0
1475,2447416,Ayorou,14.73075,0.91739,Africa/Niamey,0
1476,2656708,Ayr,55.46273,-4.63393,Europe/London,0
1477,1516789,Ayteke Bi,45.84607,62.15264,Asia/Qyzylorda,0
1478,733579,Aytos,42.7,27.25,Europe/Sofia,0
1479,3587308,Ayutuxtepeque,13.74556,-89.20639,America/El_Salvador,0
1480,322673,Ayvalik,39.31905,26.6954,Europe/Istanbul,0
1481,172059,Az Zabadani,33.72488,36.1005,Asia/Damascus,0
1482,284486,Az Zahiriyah,31.40967,34.97329,Asia/Hebron,0
1483,419435,Az Zarqa,31.20864,31.63528,Africa/Cairo,0
1484,2218970,Az Zawiyah,32.7571,12.72764,Africa/Tripoli,0
1485,2218963,Az Zintan,31.92231,12.25195,Africa/Tripoli,0
1486,98245,Az Zubayr,30.39213,47.70175,Asia/Baghdad,0
1487,107781,Az Zulfi,26.29945,44.81542,Asia/Riyadh,0
1488,6967990,Az Zuwaydah,31.43954,34.38053,Asia/Gaza,0
1489,88380,Az Zuwaytinah,30.9522,20.12022,Africa/Tripoli,0
1490,14256,Azadshahr,34.79049,48.57011,Asia/Tehran,0
1491,110831,Azadshahr,37.08701,55.17397,Asia/Tehran,0
1492,1278083,Azamgarh,26.06832,83.18358,Asia/Kolkata,0
1493,2348595,Azare,11.67478,10.19069,Africa/Lagos,0
1494,2506043,Azazga,36.74472,4.37222,Africa/Algiers,0
1495,3532497,Azcapotzalco,19.48698,-99.18594,America/Mexico_City,0
1496,2556657,Azemmour,33.28952,-8.3425,Africa/Casablanca,0
1497,7701354,Azimpur,23.7298,90.3854,Asia/Dhaka,0
1498,142496,Azna,33.6095,48.9307,Asia/Tehran,0
1499,3660434,Azogues,-2.73969,-78.8486,America/Guayaquil,0
1500,580054,Azov,47.10779,39.41648,Europe/Moscow,0
1501,2556464,Azrou,33.43443,-5.22126,Africa/Casablanca,0
1502,3512208,Azua,18.45319,-70.7349,America/Santo_Domingo,0
1503,3436199,Azul,-36.77698,-59.85854,America/Argentina/Buenos_Aires,0
1504,3129046,Azuqueca de Henares,40.56566,-3.26753,Europe/Madrid,0
1505,5325423,Azusa,34.13362,-117.90756,America/Los_Angeles,0
1506,2505915,Azzaba,36.73944,7.10528,Africa/Algiers,0
1507,277130,Baalbek,34.00583,36.21806,Asia/Beirut,0
1508,1729814,Baao,13.4549,123.3653,Asia/Manila,0
1509,2661653,Baar,47.19625,8.52954,Europe/Zurich,0
1510,65170,Baardheere,2.34464,42.27644,Africa/Mogadishu,0
1511,2759544,Baarn,52.21167,5.2875,Europe/Amsterdam,0
1512,2505854,Bab Ezzouar,36.72615,3.18291,Africa/Algiers,0
1513,751371,Babaeski,41.4325,27.09306,Europe/Istanbul,0
1514,3660418,Babahoyo,-1.80217,-79.53443,America/Guayaquil,0
1515,1278073,Babai,22.70256,77.93494,Asia/Kolkata,0
1516,2348507,Babana,10.42949,3.81495,Africa/Lagos,0
1517,1650888,Babat,-7.11282,112.16354,Asia/Jakarta,0
1518,161312,Babati,-4.21667,35.75,Africa/Dar_es_Salaam,0
1519,2953770,Babenhausen,49.96519,8.95129,Europe/Berlin,0
1520,1278064,Baberu,25.54711,80.70443,Asia/Kolkata,0
1521,3577277,Babijn,12.53333,-69.98333,America/Aruba,0
1522,1278058,Babina,25.23947,78.47028,Asia/Kolkata,0
1523,1729734,Babo-Pangulo,15.08333,120.51667,Asia/Manila,1
1524,142363,Babol,36.55132,52.67895,Asia/Tehran,0
1525,142358,Babolsar,36.70251,52.6576,Asia/Tehran,0
1526,6698360,BABOR - VILLE,36.48994,5.5393,Africa/Algiers,0
1527,1278054,Babra,21.84577,71.30544,Asia/Kolkata,0
1528,1278052,Babrala,28.26419,78.4056,Asia/Kolkata,0
1529,630468,Babruysk,53.1384,29.2214,Europe/Minsk,0
1530,1817858,Babu,24.41667,111.51667,Asia/Shanghai,0
1531,579870,Babushkin,55.86931,37.72966,Europe/Moscow,0
1532,1591527,Bac Giang,21.27307,106.1946,Asia/Ho_Chi_Minh,0
1533,1591538,Bac Kan,22.14701,105.83481,Asia/Ho_Chi_Minh,0
1534,1591449,Bac Ninh,21.18608,106.07631,Asia/Ho_Chi_Minh,0
1535,3406910,Bacabal,-4.29167,-44.79167,America/Fortaleza,0
1536,685948,Bacau,46.56667,26.9,Europe/Bucharest,0
1537,1278036,Bachhraon,28.92694,78.23456,Asia/Kolkata,0
1538,5178800,Back Mountain,41.33591,-75.99631,America/New_York,0
1539,3204674,Backa Palanka,45.25083,19.39194,Europe/Belgrade,0
1540,3204672,Backa Topola,45.81516,19.6318,Europe/Belgrade,0
1541,2953568,Backnang,48.94743,9.43718,Europe/Berlin,0
1542,3182599,Bacoli,40.79672,14.07349,Europe/Rome,0
1543,1729564,Bacolod City,10.66667,122.95,Asia/Manila,0
1544,1729524,Bacoor,14.45903,120.92903,Asia/Manila,0
1545,2953558,Bad Aibling,47.8638,12.01055,Europe/Berlin,0
1546,2955421,Bad Arolsen,51.37982,9.01445,Europe/Berlin,0
1547,2953552,Bad Bentheim,52.31814,7.16343,Europe/Berlin,0
1548,2953545,Bad Berleburg,51.05224,8.39227,Europe/Berlin,0
1549,2953525,Bad Driburg,51.73297,9.01969,Europe/Berlin,0
1550,2953522,Bad Duerkheim,49.4618,8.17236,Europe/Berlin,0
1551,2953464,Bad Essen,52.31667,8.33333,Europe/Berlin,0
1552,2953449,Bad Harzburg,51.88268,10.56157,Europe/Berlin,0
1553,2953439,Bad Hersfeld,50.87197,9.70891,Europe/Berlin,0
1554,2953436,Bad Homburg vor der Hoehe,50.22683,8.61816,Europe/Berlin,0
1555,2953435,Bad Honnef,50.64336,7.2278,Europe/Berlin,0
1556,2953424,Bad Kissingen,50.20228,10.07784,Europe/Berlin,0
1557,2953416,Bad Kreuznach,49.8414,7.86713,Europe/Berlin,0
1558,2882091,Bad Laasphe,50.93139,8.42502,Europe/Berlin,0
1559,2953413,Bad Langensalza,51.10771,10.646,Europe/Berlin,0
1560,2953405,Bad Lippspringe,51.78333,8.81683,Europe/Berlin,0
1561,2953402,Bad Mergentheim,49.4925,9.77361,Europe/Berlin,0
1562,2953400,Bad Muender am Deister,52.19551,9.46421,Europe/Berlin,0
1563,2953398,Bad Muenstereifel,50.55667,6.76424,Europe/Berlin,0
1564,2953395,Bad Nauheim,50.36463,8.73859,Europe/Berlin,0
1565,2953391,Bad Neuenahr-Ahrweiler,50.54322,7.1113,Europe/Berlin,0
1566,2953389,Bad Neustadt an der Saale,50.32174,10.20673,Europe/Berlin,0
1567,2953386,Bad Oeynhausen,52.20699,8.80365,Europe/Berlin,0
1568,2953385,Bad Oldesloe,53.81167,10.37417,Europe/Berlin,0
1569,2953379,Bad Pyrmont,51.98589,9.25246,Europe/Berlin,0
1570,2953374,Bad Rappenau,49.23848,9.1018,Europe/Berlin,0
1571,2953371,Bad Reichenhall,47.72947,12.87819,Europe/Berlin,0
1572,2953363,Bad Sackingen,47.55371,7.94612,Europe/Berlin,0
1573,2953358,Bad Salzuflen,52.0862,8.74434,Europe/Berlin,0
1574,2953357,Bad Salzungen,50.81342,10.2361,Europe/Berlin,0
1575,2953347,Bad Schwartau,53.91887,10.69691,Europe/Berlin,0
1576,2953341,Bad Segeberg,53.94313,10.30215,Europe/Berlin,0
1577,2953339,Bad Soden am Taunus,50.1408,8.50449,Europe/Berlin,0
1578,2953324,Bad Toelz,47.76111,11.5589,Europe/Berlin,0
1579,2953321,Bad Vilbel,50.17866,8.73756,Europe/Berlin,0
1580,2953320,Bad Waldsee,47.92027,9.7549,Europe/Berlin,0
1581,2953317,Bad Wildungen,51.11963,9.12475,Europe/Berlin,0
1582,2953310,Bad Zwischenahn,53.18333,8,Europe/Berlin,0
1583,1278026,Bada Barabil,22.11186,85.38684,Asia/Kolkata,0
1584,1278023,Badagara,11.59641,75.58622,Asia/Kolkata,0
1585,2348395,Badagry,6.41502,2.88132,Africa/Lagos,0
1586,2521420,Badajoz,38.87789,-6.97061,Europe/Madrid,0
1587,3129028,Badalona,41.45004,2.24741,Europe/Madrid,0
1588,1278017,Badami,15.91495,75.67683,Asia/Kolkata,0
1589,1185283,Badarganj,25.67419,89.05377,Asia/Dhaka,0
1590,7279742,Baddi,30.95783,76.79136,Asia/Kolkata,0
1591,1184075,Baddomalhi,31.99283,74.66833,Asia/Karachi,0
1592,2782067,Baden,48.00543,16.23264,Europe/Vienna,0
1593,2661646,Baden,47.47333,8.30592,Europe/Zurich,0
1594,2953504,Baden-Baden,48.7606,8.23975,Europe/Berlin,0
1595,5879898,Badger,64.8,-147.53333,America/Anchorage,0
1596,1184055,Badin,24.65599,68.83841,Asia/Karachi,0
1597,288902,Badiyah,22.45,58.8,Asia/Muscat,0
1598,1277976,Badlapur,19.15516,73.26553,Asia/Kolkata,0
1599,1277970,Badnawar,23.02181,75.23268,Asia/Kolkata,0
1600,2367660,Badou,7.58333,0.6,Africa/Lome,0
1601,107744,Badr Hunayn,23.78292,38.79047,Asia/Riyadh,0
1602,1250615,Badulla,6.9895,81.0557,Asia/Colombo,0
1603,1277950,Baduria,22.74431,88.78655,Asia/Kolkata,0
1604,1277949,Badvel,14.73959,79.06201,Asia/Kolkata,0
1605,1650815,Baekrajan,-6.7674,110.8541,Asia/Jakarta,0
1606,2521415,Baena,37.6167,-4.32245,Europe/Madrid,0
1607,2953302,Baesweiler,50.90964,6.18874,Europe/Berlin,0
1608,2521413,Baeza,37.99384,-3.47103,Europe/Madrid,0
1609,2235196,Bafang,5.15705,10.1771,Africa/Douala,0
1610,2375254,Bafata,12.16583,-14.66167,Africa/Bissau,0
1611,2235194,Bafia,4.75,11.23333,Africa/Douala,0
1612,2367656,Bafilo,9.35,1.26667,Africa/Lome,0
1613,2460755,Bafoulabe,13.8065,-10.8321,Africa/Bamako,0
1614,2235189,Bafoussam,5.47775,10.41759,Africa/Douala,0
1615,142255,Bafq,31.6035,55.40249,Asia/Tehran,0
1616,751335,Bafra,41.56778,35.90694,Europe/Istanbul,0
1617,1277939,Bagaha,27.09918,84.09003,Asia/Kolkata,0
1618,1277940,Bagaha,24.52627,85.06094,Asia/Kolkata,0
1619,1277936,Bagalkot,16.18673,75.69614,Asia/Kolkata,0
1620,161290,Bagamoyo,-6.44222,38.90422,Africa/Dar_es_Salaam,0
1621,1734409,Bagan Serai,5.0108,100.54101,Asia/Kuala_Lumpur,0
1622,1277930,Bagar,28.18784,75.50012,Asia/Kolkata,0
1623,1277924,Bagasra,21.48719,70.95516,Asia/Kolkata,0
1624,579771,Bagayevskaya,47.32411,40.38791,Europe/Moscow,0
1625,751324,Bagcilar,41.03903,28.85671,Europe/Istanbul,0
1626,3471196,Bage,-31.33139,-54.10694,America/Sao_Paulo,0
1627,1277909,Bagepalli,13.78338,77.79667,Asia/Kolkata,0
1628,1729324,Baggabag B,16.50588,121.19014,Asia/Manila,0
1629,1277902,Bagha Purana,30.68809,75.09838,Asia/Kolkata,0
1630,98182,Baghdad,33.34058,44.40088,Asia/Baghdad,0
1631,1277897,Baghdogra,26.69929,88.31177,Asia/Kolkata,0
1632,2525628,Bagheria,38.07892,13.51237,Europe/Rome,0
1633,1147540,Baghlan,36.13068,68.70829,Asia/Kabul,0
1634,1277882,Baghpat,28.94485,77.21865,Asia/Kolkata,0
1635,1283711,Baglung,28.27189,83.58975,Asia/Kathmandu,0
1636,3035409,Bagneux,48.79565,2.30796,Europe/Paris,0
1637,3035403,Bagnolet,48.86667,2.41667,Europe/Paris,0
1638,3182518,Bagnoli,40.81322,14.16807,Europe/Rome,0
1639,3035396,Bagnols-sur-Ceze,44.1599,4.61776,Europe/Paris,0
1640,1300466,Bago,17.33521,96.48135,Asia/Rangoon,0
1641,1729085,Bago City,10.53333,122.83333,Asia/Manila,0
1642,1966336,Bagong Pagasa,14.6627,121.0328,Asia/Manila,0
1643,3699484,Bagua Grande,-5.75611,-78.44111,America/Lima,0
1644,3746938,Baguanos,20.75167,-76.02694,America/Havana,0
1645,2742506,Baguim do Monte,41.19392,-8.54133,Europe/Lisbon,0
1646,1728930,Baguio,16.41639,120.59306,Asia/Manila,0
1647,1277844,Bagula,23.33664,88.64109,Asia/Kolkata,0
1648,1277841,Bah,26.86912,78.59385,Asia/Kolkata,0
1649,1728825,Bah-Bah,8.60722,125.91444,Asia/Manila,0
1650,1277836,Bahadurganj,26.2594,87.82096,Asia/Kolkata,0
1651,1277835,Bahadurgarh,28.69287,76.93555,Asia/Kolkata,0
1652,142000,Bahar,34.9072,48.4414,Asia/Tehran,0
1653,1277820,Baharampur,24.10473,88.25155,Asia/Kolkata,0
1654,162158,Baharly,38.43624,57.43158,Asia/Ashgabat,0
1655,1734839,Bahau,2.8079,102.4049,Asia/Kuala_Lumpur,0
1656,1183883,Bahawalnagar,29.99866,73.2536,Asia/Karachi,0
1657,1332083,Bahawalnagar,30.55083,73.39083,Asia/Karachi,0
1658,1183880,Bahawalpur,29.4,71.68333,Asia/Karachi,0
1659,322391,Bahce,37.19724,36.57658,Europe/Istanbul,0
1660,7627067,Bahcelievler,41.00231,28.8598,Europe/Istanbul,0
1661,1277814,Baheri,28.77373,79.49553,Asia/Kolkata,0
1662,3865086,Bahia Blanca,-38.71959,-62.27243,America/Argentina/Buenos_Aires,0
1663,3660401,Bahia de Caraquez,-0.59792,-80.42367,America/Guayaquil,0
1664,3567995,Bahia Honda,22.90361,-83.15917,America/Havana,0
1665,342884,Bahir Dar,11.59364,37.39077,Africa/Addis_Ababa,0
1666,1277808,Bahjoi,28.39502,78.62659,Asia/Kolkata,0
1667,288899,Bahla',22.97339,57.29958,Asia/Muscat,0
1668,1277799,Bahraigh,27.57429,81.59474,Asia/Kolkata,0
1669,7302862,Bahula,23.65176,87.16475,Asia/Kolkata,0
1670,685826,Baia Mare,47.65729,23.56808,Europe/Bucharest,0
1671,6697993,Baia Mare,47.65331,23.57949,Europe/Bucharest,0
1672,685823,Baia Sprie,47.66189,23.69215,Europe/Bucharest,0
1673,2038569,Baicheng,45.60746,122.82076,Asia/Shanghai,0
1674,685811,Baicoi,45.03333,25.85,Europe/Bucharest,0
1675,64536,Baidoa,3.11383,43.6498,Africa/Mogadishu,0
1676,1277780,Baidyabati,22.78498,88.32586,Asia/Kolkata,0
1677,5889745,Baie-Comeau,49.21679,-68.14894,America/Toronto,0
1678,3579767,Baie-Mahault,16.26738,-61.58543,America/Guadeloupe,0
1679,2953197,Baiersbronn,48.50318,8.37699,Europe/Berlin,0
1680,1277776,Baihar,22.10133,80.54967,Asia/Kolkata,0
1681,1817701,Baihe,22.1343,107.232,Asia/Shanghai,0
1682,1529626,Baijiantan,45.68928,85.12441,Asia/Urumqi,0
1683,1277765,Bail Hongal,15.81619,74.85752,Asia/Kolkata,0
1684,2656627,Baildon,53.84711,-1.78785,Europe/London,0
1685,2521410,Bailen,38.09639,-3.77786,Europe/Madrid,0
1686,685785,Bailesti,44.01667,23.35,Europe/Bucharest,0
1687,5816320,Bainbridge Island,47.62621,-122.52124,America/Los_Angeles,0
1688,2038541,Baiquan,47.60605,126.08481,Asia/Shanghai,0
1689,1277748,Bairagnia,26.74063,85.27323,Asia/Kolkata,0
1690,1728772,Bais,9.59111,123.12278,Asia/Manila,0
1691,1816269,Baise City,23.89972,106.61333,Asia/Shanghai,0
1692,2038584,Baishan,41.93853,126.41965,Asia/Shanghai,0
1693,2038529,Baishishan,43.58333,127.56667,Asia/Shanghai,0
1694,3471061,Baixo Guandu,-19.51889,-41.01583,America/Sao_Paulo,0
1695,1817240,Baiyin,36.54696,104.17023,Asia/Shanghai,0
1696,1277723,Baj Baj,22.47514,88.17767,Asia/Kolkata,0
1697,3055685,Baja,46.17496,18.95639,Europe/Budapest,0
1698,77408,Bajil,15.05835,43.28506,Asia/Aden,0
1699,1185276,Bajitpur,24.21623,90.95002,Asia/Dhaka,0
1700,3512128,Bajos de Haina,18.41538,-70.03317,America/Santo_Domingo,0
1701,579738,Bakal,54.9417,58.8083,Asia/Yekaterinburg,0
1702,2413920,Bakau,13.47806,-16.68194,Africa/Banjul,0
1703,5325738,Bakersfield,35.37329,-119.01871,America/Los_Angeles,0
1704,712969,Bakhchysaray,44.75525,33.85782,Europe/Simferopol,0
1705,712967,Bakhmach,51.18144,32.83463,Europe/Kiev,0
1706,1277684,Bakhtiyarpur,25.45931,85.53301,Asia/Kolkata,0
1707,1650670,Baki,-7.61278,110.78389,Asia/Jakarta,0
1708,8045596,Baki,9.89206,43.38531,Africa/Mogadishu,0
1709,824003,Bakixanov,40.41894,49.96693,Asia/Baku,0
1710,342856,Bako,5.78333,36.56667,Africa/Addis_Ababa,0
1711,1732871,Bakri,2.0441,102.6527,Asia/Kuala_Lumpur,0
1712,579574,Baksan,43.68806,43.53694,Europe/Moscow,0
1713,587084,Baku,40.37767,49.89201,Asia/Baku,0
1714,579529,Balabanovo,55.18161,36.6606,Europe/Moscow,0
1715,1277666,Balachor,31.06062,76.30166,Asia/Kolkata,0
1716,98112,Balad,34.01485,44.14574,Asia/Baghdad,0
1717,1277661,Balaghat,21.8156,80.18845,Asia/Kolkata,0
1718,1728584,Balagtas,14.81667,120.86667,Asia/Manila,0
1719,3128978,Balaguer,41.79117,0.81094,Europe/Madrid,0
1720,1650600,Balaipungut,1.05949,101.29054,Asia/Jakarta,0
1721,931865,Balaka,-14.97928,34.95575,Africa/Blantyre,0
1722,712930,Balaklava,44.51118,33.59942,Europe/Simferopol,0
1723,712926,Balakliya,49.4627,36.85951,Europe/Kiev,0
1724,579492,Balakovo,52.02782,47.8007,Europe/Volgograd,0
1725,1728546,Balamban,10.5039,123.7156,Asia/Manila,0
1726,1728523,Balanga,14.67611,120.53611,Asia/Manila,0
1727,1277643,Balangir,20.70419,83.49029,Asia/Kolkata,0
1728,1650572,Balapulang,-7.05,109.08333,Asia/Jakarta,0
1729,1277636,Balapur,20.66612,76.77386,Asia/Kolkata,0
1730,1277634,Balarampur,23.09714,86.22292,Asia/Kolkata,0
1731,579464,Balashikha,55.80945,37.95806,Europe/Moscow,0
1732,579460,Balashov,51.5502,43.1667,Europe/Volgograd,0
1733,1277599,Balasore,21.49266,86.93348,Asia/Kolkata,0
1734,3055601,Balassagyarmat,48.07296,19.29614,Europe/Budapest,0
1735,284446,Balatah,32.21207,35.28561,Asia/Hebron,0
1736,1728336,Balayan,13.93714,120.73224,Asia/Manila,0
1737,2966794,Balbriggan,53.61278,-6.18194,Europe/Dublin,0
1738,4672059,Balch Springs,32.72874,-96.62277,America/Chicago,0
1739,5107760,Baldwin,40.65649,-73.6093,America/New_York,0
1740,5178940,Baldwin,40.33813,-79.97894,America/New_York,0
1741,5325866,Baldwin Park,34.08529,-117.9609,America/Los_Angeles,0
1742,2802743,Balen,51.16837,5.17027,Europe/Brussels,0
1743,579432,Balezino,57.9787,53.0138,Europe/Samara,0
1744,1021396,Balfour,-26.66331,28.59016,Africa/Johannesburg,0
1745,2235029,Bali,5.88737,10.01176,Africa/Douala,0
1746,1277539,Bali,22.64859,88.34115,Asia/Kolkata,0
1747,1277590,Bali,25.19725,73.29117,Asia/Kolkata,0
1748,322165,Balikesir,39.64917,27.88611,Europe/Istanbul,0
1749,1650527,Balikpapan,-1.26753,116.82887,Asia/Makassar,0
1750,2953089,Balingen,48.27525,8.85464,Europe/Berlin,0
1751,1727995,Baliuag,14.95472,120.89694,Asia/Manila,0
1752,161616,Balkanabat,39.51075,54.36713,Asia/Ashgabat,0
1753,1147290,Balkh,36.75635,66.8972,Asia/Kabul,0
1754,1277557,Ballalpur,19.84657,79.34624,Asia/Kolkata,0
1755,2177091,Ballarat,-37.56622,143.84957,Australia/Melbourne,0
1756,4347839,Ballenger Creek,39.3726,-77.43526,America/New_York,0
